,CAMPUS,DNAME,CNAME,GRADE,District Type,School Site Street Address,School Site City,School Site Zip,Below Grade Level,Approach Grade Level,Meet Grade Level,Master Grade Level,Full Address,Latitude,Longitude
0,1902103,CAYUGA ISD,CAYUGA ELEM.,3,INDEPENDENT,17750 N US HWY 287,TENNESSEE COLONY,75861,6.0,40.0,38.0,27.0,"17750 N US HWY 287 TENNESSEE COLONY,TX 75861",31.9229638,-95.92387049999999
1,1903102,ELKHART ISD,ELKHART INTERME,3,INDEPENDENT,301 E PARKER ST,ELKHART,75839-9701,26.0,68.0,37.0,12.0,"301 E PARKER ST ELKHART,TX 75839-9701",31.6281018,-95.5789828
2,1904102,FRANKSTON ISD,FRANKSTON ELEM.,3,INDEPENDENT,100 PERRY ST,FRANKSTON,75763-0428,16.0,39.0,26.0,10.0,"100 PERRY ST FRANKSTON,TX 75763-0428",32.0621485,-95.5042737
3,1906102,NECHES ISD,NECHES ELEM.,3,INDEPENDENT,3055 FM 2574,PALESTINE,75803,5.0,20.0,7.0,2.0,"3055 FM 2574 PALESTINE,TX 75803",31.8706044,-95.49208039999999
4,1907107,PALESTINE ISD,SOUTHSIDE ELEM.,3,INDEPENDENT,201 GILLESPIE RD,PALESTINE,75801-7627,46.0,174.0,93.0,51.0,"201 GILLESPIE RD PALESTINE,TX 75801-7627",31.7409214,-95.62485249999999
5,1908101,WESTWOOD ISD,WESTWOOD ELEM.,3,INDEPENDENT,2305 SALT WORKS RD,PALESTINE,75803-3955,50.0,56.0,22.0,6.0,"2305 SALT WORKS RD PALESTINE,TX 75803-3955",31.748752,-95.679588
6,1909101,SLOCUM ISD,SLOCUM PRE-K -,3,INDEPENDENT,5765 E STATE HWY 294,ELKHART,75839-9802,5.0,22.0,13.0,5.0,"5765 E STATE HWY 294 ELKHART,TX 75839-9802",31.6321077,-95.46213639999999
7,2901101,ANDREWS ISD,DEVONIAN ELEM.,3,INDEPENDENT,1214 NW 11TH ST,ANDREWS,79714-3240,49.0,232.0,144.0,69.0,"1214 NW 11TH ST ANDREWS,TX 79714-3240",32.3291948,-102.5632399
8,3801103,PINEYWOODS COMM,SARAH STRINDEN,3,CHARTER,602 S RAGUET ST,LUFKIN,75904,15.0,65.0,44.0,28.0,"602 S RAGUET ST LUFKIN,TX 75904",31.3324899,-94.7321992
9,3902102,HUDSON ISD,W.H. BONNER ELE,3,INDEPENDENT,536 FM 3258,LUFKIN,75904,27.0,166.0,107.0,49.0,"536 FM 3258 LUFKIN,TX 75904",31.3141608,-94.8452212
10,3903120,LUFKIN ISD,ANDERSON ELEM.,3,INDEPENDENT,381 CHAMPION DR,LUFKIN,75901-7229,29.0,50.0,20.0,4.0,"381 CHAMPION DR LUFKIN,TX 75901-7229",31.287825,-94.723669
11,3903121,LUFKIN ISD,BRANDON ELEM.,3,INDEPENDENT,1612 SAYERS ST,LUFKIN,75904-2012,29.0,96.0,62.0,31.0,"1612 SAYERS ST LUFKIN,TX 75904-2012",31.3599949,-94.7336314
12,3903122,LUFKIN ISD,BROOKHOLLOW ELE,3,INDEPENDENT,1009 LIVE OAK LN,LUFKIN,75904-4245,37.0,64.0,25.0,12.0,"1009 LIVE OAK LN LUFKIN,TX 75904-4245",31.3157898,-94.76635519999999
13,3903123,LUFKIN ISD,COSTON ELEM.,3,INDEPENDENT,707 TRENTON,LUFKIN,75901-2497,23.0,55.0,26.0,10.0,"707 TRENTON LUFKIN,TX 75901-2497",31.3508382,-94.7128886
14,3903129,LUFKIN ISD,SLACK ELEM.,3,INDEPENDENT,1305 FULLER SPRINGS DR,LUFKIN,75901-6515,29.0,127.0,71.0,31.0,"1305 FULLER SPRINGS DR LUFKIN,TX 75901-6515",31.307878,-94.69563900000001
15,3904101,HUNTINGTON ISD,HUNTINGTON ELEM,3,INDEPENDENT,408 E LINN ST,HUNTINGTON,75949-0328,27.0,86.0,44.0,21.0,"408 E LINN ST HUNTINGTON,TX 75949-0328",31.2807554,-94.5676922
16,3905103,DIBOLL ISD,H.G. TEMPLE INT,3,INDEPENDENT,1301 LUMBERJACK DR,DIBOLL,75941,31.0,76.0,35.0,12.0,"1301 LUMBERJACK DR DIBOLL,TX 75941",31.1962382,-94.7616821
17,3906101,ZAVALLA ISD,ZAVALLA ELEM.,3,INDEPENDENT,431 E MAIN ST,ZAVALLA,75980-0045,4.0,23.0,14.0,9.0,"431 E MAIN ST ZAVALLA,TX 75980-0045",31.1583866,-94.4205295
18,3907102,CENTRAL ISD,CENTRAL ELEM.,3,INDEPENDENT,8578 US HWY 69N,POLLOK,75969-9710,28.0,74.0,33.0,13.0,"8578 US HWY 69N POLLOK,TX 75969-9710",31.4347163,-94.8270608
19,4901101,ARANSAS COUNTY,FULTON LEARNING,3,INDEPENDENT,314 N 6TH ST,FULTON,78358-0907,91.0,126.0,51.0,28.0,"314 N 6TH ST FULTON,TX 78358-0907",28.0644946,-97.0388826
20,5901101,ARCHER CITY ISD,ARCHER CITY ELE,3,INDEPENDENT,602 S ASH ST,ARCHER CITY,76351-0926,0.0,27.0,23.0,18.0,"602 S ASH ST ARCHER CITY,TX 76351-0926",33.5893437,-98.6300535
21,5902101,HOLLIDAY ISD,HOLLIDAY ELEM.,3,INDEPENDENT,751 COLLEGE AVE,HOLLIDAY,76366-0689,15.0,53.0,30.0,7.0,"751 COLLEGE AVE HOLLIDAY,TX 76366-0689",33.8090305,-98.68733759999999
22,5904101,WINDTHORST ISD,WINDTHORST ELEM,3,INDEPENDENT,100 ST MARYS DR,WINDTHORST,76389-0190,1.0,22.0,14.0,9.0,"100 ST MARYS DR WINDTHORST,TX 76389-0190",33.5749306,-98.44031439999999
24,7901101,CHARLOTTE ISD,CHARLOTTE ELEM.,3,INDEPENDENT,168 WATSON AVE,CHARLOTTE,78011-0489,2.0,28.0,15.0,4.0,"168 WATSON AVE CHARLOTTE,TX 78011-0489",28.8615389,-98.70159029999999
25,7902101,JOURDANTON ISD,JOURDANTON ELEM,3,INDEPENDENT,200 ZANDERSON AVE,JOURDANTON,78026-3045,35.0,84.0,40.0,15.0,"200 ZANDERSON AVE JOURDANTON,TX 78026-3045",28.9091901,-98.5425764
26,7904101,LYTLE ISD,LYTLE ELEM.,3,INDEPENDENT,11550 LAREDO,LYTLE,78052-1060,45.0,74.0,30.0,12.0,"11550 LAREDO LYTLE,TX 78052-1060",29.2348088,-98.8045203
27,7905103,PLEASANTON ISD,PLEASANTON ELEM,3,INDEPENDENT,101 GRANT ST,PLEASANTON,78064-3028,79.0,159.0,75.0,35.0,"101 GRANT ST PLEASANTON,TX 78064-3028",28.968512,-98.5014834
28,7906101,POTEET ISD,POTEET ELEM.,3,INDEPENDENT,965 HORTON LN,POTEET,78065-0138,41.0,90.0,42.0,9.0,"965 HORTON LN POTEET,TX 78065-0138",29.04468199999999,-98.5711438
29,8901101,BELLVILLE ISD,O'BRYANT PRIMAR,3,INDEPENDENT,413 S TESCH,BELLVILLE,77418-1599,30.0,113.0,67.0,34.0,"413 S TESCH BELLVILLE,TX 77418-1599",29.9439111,-96.2542725
30,8901105,BELLVILLE ISD,WEST END ELEM.,3,INDEPENDENT,7453 ERNST PKWY,INDUSTRY,78944-0099,7.0,18.0,11.0,6.0,"7453 ERNST PKWY INDUSTRY,TX 78944-0099",29.9673655,-96.50222699999999
31,8902102,SEALY ISD,SELMAN ELEM.,3,INDEPENDENT,1741 HWY 90 W,SEALY,77474-3400,30.0,75.0,41.0,15.0,"1741 HWY 90 W SEALY,TX 77474-3400",29.766416,-96.17145599999999
32,8902104,SEALY ISD,SEALY ELEM.,3,INDEPENDENT,723 FM 2187,SEALY,77474,26.0,67.0,32.0,12.0,"723 FM 2187 SEALY,TX 77474",29.7969503,-96.1654954
33,8903102,BRAZOS ISD,BRAZOS ELEM.,3,INDEPENDENT,9814 KIBLER ST,ORCHARD,77464-0030,14.0,44.0,23.0,9.0,"9814 KIBLER ST ORCHARD,TX 77464-0030",29.6109125,-95.9693542
34,9901101,MULESHOE ISD,MARY DESHAZO EL,3,INDEPENDENT,300 W 3RD,MULESHOE,79347-3499,41.0,50.0,25.0,13.0,"300 W 3RD MULESHOE,TX 79347-3499",34.2258961,-102.7287745
35,10901001,MEDINA ISD,MEDINA SCHOOL,3,INDEPENDENT,ONE BOBCAT LN,MEDINA,78055-1470,7.0,13.0,6.0,2.0,"ONE BOBCAT LN MEDINA,TX 78055-1470",29.8000156,-99.2485743
36,10902101,BANDERA ISD,ALKEK ELEM.,3,INDEPENDENT,1798 HWY 173 S,BANDERA,78003-0727,8.0,55.0,30.0,15.0,"1798 HWY 173 S BANDERA,TX 78003-0727",29.7023984,-99.0598636
37,10902102,BANDERA ISD,HILL COUNTRY EL,3,INDEPENDENT,6346 FM 1283,PIPE CREEK,78063,20.0,52.0,23.0,10.0,"6346 FM 1283 PIPE CREEK,TX 78063",29.6451555,-98.94403469999999
38,11901101,BASTROP ISD,EMILE ELEM.,3,INDEPENDENT,601 MLK,BASTROP,78602-3717,35.0,97.0,55.0,29.0,"601 MLK BASTROP,TX 78602-3717",30.1076539,-97.31038760000001
39,11901102,BASTROP ISD,MINA ELEM.,3,INDEPENDENT,1203 HILL ST,BASTROP,78602-3717,7.0,96.0,53.0,25.0,"1203 HILL ST BASTROP,TX 78602-3717",30.112972,-97.31489400000001
40,11901103,BASTROP ISD,CEDAR CREEK ELE,3,INDEPENDENT,5582 FM 535,CEDAR CREEK,78612,27.0,114.0,74.0,35.0,"5582 FM 535 CEDAR CREEK,TX 78612",30.0844586,-97.499234
41,11901107,BASTROP ISD,RED ROCK ELEM.,3,INDEPENDENT,2401 FM 20,RED ROCK,78662,50.0,71.0,34.0,10.0,"2401 FM 20 RED ROCK,TX 78662",29.958399,-97.451153
42,11901109,BASTROP ISD,BLUEBONNET ELEM,3,INDEPENDENT,416 FM 1209,BASTROP,78602,38.0,100.0,62.0,27.0,"416 FM 1209 BASTROP,TX 78602",30.1328749,-97.4301136
43,11901110,BASTROP ISD,LOST PINES ELEM,3,INDEPENDENT,151 TIGER WOODS DR,BASTROP,78602,41.0,84.0,41.0,21.0,"151 TIGER WOODS DR BASTROP,TX 78602",30.1773909,-97.27986990000001
44,11902101,ELGIN ISD,BOOKER T. WASHI,3,INDEPENDENT,510 MLK,ELGIN,78621-3032,57.0,46.0,17.0,6.0,"510 MLK ELGIN,TX 78621-3032",30.341745,-97.3652317
45,11902102,ELGIN ISD,ELGIN ELEM.,3,INDEPENDENT,1005 W 2ND ST,ELGIN,78621-2038,27.0,59.0,26.0,12.0,"1005 W 2ND ST ELGIN,TX 78621-2038",30.3495615,-97.3799073
46,11902103,ELGIN ISD,NEIDIG ELEM.,3,INDEPENDENT,13700 COUNTY LINE RD,ELGIN,78621,35.0,69.0,31.0,12.0,"13700 COUNTY LINE RD ELGIN,TX 78621",30.361216,-97.40892939999999
47,11904101,SMITHVILLE ISD,SMITHVILLE ELEM,3,INDEPENDENT,800 BISHOP ST,SMITHVILLE,78957-0479,18.0,90.0,61.0,35.0,"800 BISHOP ST SMITHVILLE,TX 78957-0479",30.0094504,-97.14889490000002
48,11905101,MCDADE ISD,MCDADE ELEM.,3,INDEPENDENT,156 MARLIN ST,MCDADE,78650-0400,3.0,29.0,18.0,11.0,"156 MARLIN ST MCDADE,TX 78650-0400",30.2830481,-97.24013610000002
49,12901101,SEYMOUR ISD,SEYMOUR ELEM.,3,INDEPENDENT,300 E IDAHO ST,SEYMOUR,76380-1650,8.0,36.0,16.0,7.0,"300 E IDAHO ST SEYMOUR,TX 76380-1650",33.5936136,-99.25855089999999
50,13801101,ST. MARY'S ACAD,ST. MARY'S ACAD,3,CHARTER,410 N TYLER ST,BEEVILLE,78102,5.0,42.0,18.0,3.0,"410 N TYLER ST BEEVILLE,TX 78102",28.4077266,-97.7445001
51,13901101,BEEVILLE ISD,R.A. HALL ELEM.,3,INDEPENDENT,1100 W HUNTINGTON,BEEVILLE,78102-2599,22.0,61.0,26.0,17.0,"1100 W HUNTINGTON BEEVILLE,TX 78102-2599",28.4093127,-97.76520099999999
52,13901102,BEEVILLE ISD,FADDEN-MCKEOWN-,3,INDEPENDENT,100 T J PFEIL,BEEVILLE,78102-6998,35.0,77.0,31.0,17.0,"100 T J PFEIL BEEVILLE,TX 78102-6998",28.3855191,-97.7383732
53,13902101,PAWNEE ISD,PAWNEE ELEM. -,3,INDEPENDENT,6229 FM 798,PAWNEE,78145-0569,1.0,11.0,4.0,3.0,"6229 FM 798 PAWNEE,TX 78145-0569",28.652515,-98.0037814
54,13903101,PETTUS ISD,PETTUS ELEM.,3,INDEPENDENT,500 N BEE ST,PETTUS,78146-1149,4.0,23.0,14.0,9.0,"500 N BEE ST PETTUS,TX 78146-1149",28.6236157,-97.7982507
55,13905101,SKIDMORE-TYNAN,SKIDMORE-TYNAN,3,INDEPENDENT,325 BOBCAT TRAIL,SKIDMORE,78389,8.0,43.0,20.0,5.0,"325 BOBCAT TRAIL SKIDMORE,TX 78389",28.2560021,-97.6921406
56,14803002,PRIORITY CHARTE,GEORGETOWN CHAR,3,CHARTER,302 SERENADA,GEORGETOWN,78628,1.0,9.0,4.0,0.0,"302 SERENADA GEORGETOWN,TX 78628",30.6839702,-97.6877535
57,14803003,PRIORITY CHARTE,COVE CHARTER AC,3,CHARTER,2205 FM 3046,COPPERAS COVE,76522,6.0,11.0,2.0,0.0,"2205 FM 3046 COPPERAS COVE,TX 76522",31.0895912,-97.9095014
58,14803004,PRIORITY CHARTE,CEDAR PARK CHAR,3,CHARTER,201 BUTTERCUP CREEK BLVD,CEDAR PARK,78613,2.0,13.0,8.0,6.0,"201 BUTTERCUP CREEK BLVD CEDAR PARK,TX 78613",30.5035462,-97.8220936
59,14803101,PRIORITY CHARTE,TEMPLE CHARTER,3,CHARTER,7177 AIRPORT RD,TEMPLE,76502,6.0,20.0,14.0,7.0,"7177 AIRPORT RD TEMPLE,TX 76502",31.13878029999999,-97.4113644
60,14804002,ORENDA CHARTER,NEW HORIZONS,3,CHARTER,850 FM 574 W,GOLDTHWAITE,76844,7.0,0.0,0.0,0.0,"850 FM 574 W GOLDTHWAITE,TX 76844",31.4546838,-98.70850469999999
61,14804006,ORENDA CHARTER,GATEWAY COLLEGE,3,CHARTER,3360 WESTINGHOUSE RD,GEORGETOWN,78626,9.0,99.0,73.0,40.0,"3360 WESTINGHOUSE RD GEORGETOWN,TX 78626",30.5941151,-97.6364215
62,14804007,ORENDA CHARTER,NOLAN CREEK SCH,3,CHARTER,505 E AVE C,BELTON,76513,2.0,15.0,6.0,1.0,"505 E AVE C BELTON,TX 76513",31.0523641,-97.4602532
63,14804008,ORENDA CHARTER,KINGSLAND SCHOO,3,CHARTER,2112 W RANCH RD 1431,KINGSLAND,78639,11.0,8.0,2.0,0.0,"2112 W RANCH RD 1431 KINGSLAND,TX 78639",30.6629822,-98.44691340000001
64,14901101,ACADEMY ISD,ACAD. INTERMEDI,3,INDEPENDENT,107 S PONDALILY,LITTLE RIVER,76554,13.0,102.0,56.0,25.0,"107 S PONDALILY LITTLE RIVER,TX 76554",30.9826374,-97.34923359999999
65,14902001,BARTLETT ISD,BARTLETT SCHOOL,3,INDEPENDENT,404 N ROBINSON,BARTLETT,76511-0170,3.0,15.0,8.0,2.0,"404 N ROBINSON BARTLETT,TX 76511-0170",30.7966926,-97.42229139999999
66,14903102,BELTON ISD,LEON HEIGHTS EL,3,INDEPENDENT,1501 N MAIN,BELTON,76513,6.0,33.0,18.0,8.0,"1501 N MAIN BELTON,TX 76513",31.0709443,-97.45732110000002
67,14903103,BELTON ISD,MILLER HEIGHTS,3,INDEPENDENT,1110 FAIRWAY DR,BELTON,76513,10.0,43.0,23.0,6.0,"1110 FAIRWAY DR BELTON,TX 76513",31.04437,-97.457466
68,14903104,BELTON ISD,SOUTHWEST ELEM.,3,INDEPENDENT,611 S SAUNDERS,BELTON,76513,29.0,32.0,9.0,3.0,"611 S SAUNDERS BELTON,TX 76513",31.0528786,-97.4716483
69,14903108,BELTON ISD,LAKEWOOD ELEM.,3,INDEPENDENT,11200 FM 2305,BELTON,76513,6.0,99.0,76.0,52.0,"11200 FM 2305 BELTON,TX 76513",31.1290156,-97.46117850000002
70,14903109,BELTON ISD,SPARTA ELEM.,3,INDEPENDENT,1800 SPARTA RD,BELTON,76513,17.0,89.0,63.0,27.0,"1800 SPARTA RD BELTON,TX 76513",31.08624989999999,-97.4759201
71,14903111,BELTON ISD,JOE M. PIRTLE E,3,INDEPENDENT,714 S PEA RDG,TEMPLE,76502,25.0,110.0,64.0,34.0,"714 S PEA RDG TEMPLE,TX 76502",31.113662,-97.4329808
72,14903116,BELTON ISD,TARVER ELEM.,3,INDEPENDENT,7949 STONEHOLLOW DR,TEMPLE,76502,11.0,95.0,68.0,42.0,"7949 STONEHOLLOW DR TEMPLE,TX 76502",31.125414,-97.4236864
73,14903117,BELTON ISD,HIGH POINT ELEM,3,INDEPENDENT,1635 STARLIGHT DR,TEMPLE,76502,13.0,93.0,67.0,39.0,"1635 STARLIGHT DR TEMPLE,TX 76502",31.1387083,-97.44034599999999
74,14903118,BELTON ISD,CHISHOLM TRAIL,3,INDEPENDENT,1082 S WHEAT RD,BELTON,76513,39.0,83.0,37.0,15.0,"1082 S WHEAT RD BELTON,TX 76513",31.0578585,-97.4990703
75,14905101,HOLLAND ISD,HOLLAND ELEM.,3,INDEPENDENT,503 CROCKETT ST,HOLLAND,76534-0217,3.0,43.0,27.0,9.0,"503 CROCKETT ST HOLLAND,TX 76534-0217",30.8794566,-97.4091194
76,14906102,KILLEEN ISD,CLIFTON PARK EL,3,INDEPENDENT,2200 TRIMMIER RD,KILLEEN,76541-8599,10.0,66.0,38.0,18.0,"2200 TRIMMIER RD KILLEEN,TX 76541-8599",31.0970254,-97.7308063
78,14906105,KILLEEN ISD,HARKER HEIGHTS,3,INDEPENDENT,726 S ANN BLVD,HARKER HEIGHTS,76548-1209,29.0,71.0,42.0,16.0,"726 S ANN BLVD HARKER HEIGHTS,TX 76548-1209",31.08475159999999,-97.6694323
79,14906108,KILLEEN ISD,MEADOWS ELEM.,3,INDEPENDENT,423 27TH ST,FORT HOOD,76544-1347,9.0,64.0,41.0,22.0,"423 27TH ST FORT HOOD,TX 76544-1347",31.1379545,-97.7467459
80,14906109,KILLEEN ISD,PEEBLES ELEM.,3,INDEPENDENT,1800 N W S YOUNG DR,KILLEEN,76543-3139,5.0,76.0,51.0,27.0,"1800 N W S YOUNG DR KILLEEN,TX 76543-3139",31.1280964,-97.70619339999999
81,14906110,KILLEEN ISD,PERSHING PARK E,3,INDEPENDENT,1500 W CENTRAL TX EXPWY,KILLEEN,76549-1220,17.0,37.0,21.0,8.0,"1500 W CENTRAL TX EXPWY KILLEEN,TX 76549-1220",31.10917,-97.7538077
82,14906111,KILLEEN ISD,SUGAR LOAF ELEM,3,INDEPENDENT,1517 BARBARA LN,KILLEEN,76549-8299,23.0,36.0,19.0,8.0,"1517 BARBARA LN KILLEEN,TX 76549-8299",31.0993894,-97.75941159999999
83,14906112,KILLEEN ISD,WEST WARD ELEM.,3,INDEPENDENT,709 W DEAN AVE,KILLEEN,76541-2398,23.0,41.0,16.0,6.0,"709 W DEAN AVE KILLEEN,TX 76541-2398",31.1320273,-97.7315707
84,14906113,KILLEEN ISD,BELLAIRE ELEM.,3,INDEPENDENT,108 W JASPER,KILLEEN,76542-1397,19.0,49.0,19.0,7.0,"108 W JASPER KILLEEN,TX 76542-1397",31.100442,-97.7419249
85,14906115,KILLEEN ISD,NOLANVILLE ELEM,3,INDEPENDENT,901 OLD NOLANVILLE RD,NOLANVILLE,76559-4599,19.0,64.0,41.0,15.0,"901 OLD NOLANVILLE RD NOLANVILLE,TX 76559-4599",31.073523,-97.62113099999999
86,14906116,KILLEEN ISD,CLARKE ELEM.,3,INDEPENDENT,51600 COMMANCHE AVE,FORT HOOD,76544-1173,6.0,78.0,55.0,33.0,"51600 COMMANCHE AVE FORT HOOD,TX 76544-1173",31.1358927,-97.8059442
87,14906119,KILLEEN ISD,HAY BRANCH ELEM,3,INDEPENDENT,6101 WESTCLIFF RD,KILLEEN,76543-8898,17.0,75.0,39.0,17.0,"6101 WESTCLIFF RD KILLEEN,TX 76543-8898",31.1161476,-97.6609466
88,14906120,KILLEEN ISD,WILLOW SPRINGS,3,INDEPENDENT,2501 W STAN SCHLUETER LOOP,KILLEEN,76549-3669,61.0,84.0,45.0,22.0,"2501 W STAN SCHLUETER LOOP KILLEEN,TX 76549-3669",31.0850278,-97.7775448
89,14906121,KILLEEN ISD,MOUNTAIN VIEW E,3,INDEPENDENT,500 MOUNTAIN LION RD,HARKER HEIGHTS,76548-2099,27.0,118.0,76.0,44.0,"500 MOUNTAIN LION RD HARKER HEIGHTS,TX 76548-2099",31.06055589999999,-97.6692235
90,14906122,KILLEEN ISD,REECES CREEK EL,3,INDEPENDENT,400 W STAN SCHLUETER LOOP,KILLEEN,76542-3839,21.0,96.0,59.0,23.0,"400 W STAN SCHLUETER LOOP KILLEEN,TX 76542-3839",31.0762397,-97.7536361
91,14906123,KILLEEN ISD,CLEAR CREEK ELE,3,INDEPENDENT,4800 WASHINGTON BLVD,FORT HOOD,76544-1199,9.0,68.0,37.0,15.0,"4800 WASHINGTON BLVD FORT HOOD,TX 76544-1199",31.1201643,-97.7910854
92,14906124,KILLEEN ISD,CEDAR VALLEY EL,3,INDEPENDENT,4801 CHANTZ DR,KILLEEN,76542-3745,13.0,98.0,68.0,33.0,"4801 CHANTZ DR KILLEEN,TX 76542-3745",31.0642922,-97.699725
93,14906125,KILLEEN ISD,BROOKHAVEN ELEM,3,INDEPENDENT,3221 HILLIARD AVE,KILLEEN,76543-2648,13.0,65.0,34.0,14.0,"3221 HILLIARD AVE KILLEEN,TX 76543-2648",31.1307976,-97.6917921
94,14906126,KILLEEN ISD,VENABLE VILLAGE,3,INDEPENDENT,60160 VENABLE RD,FORT HOOD,76544-3610,8.0,66.0,55.0,38.0,"60160 VENABLE RD FORT HOOD,TX 76544-3610",31.1196129,-97.76238629999999
95,14906127,KILLEEN ISD,TRIMMIER ELEM.,3,INDEPENDENT,4400 SUCCESS DR,KILLEEN,76542-3987,17.0,72.0,40.0,16.0,"4400 SUCCESS DR KILLEEN,TX 76542-3987",31.0740319,-97.7311446
96,14906128,KILLEEN ISD,MONTAGUE VILLAG,3,INDEPENDENT,84001 CLEMENT DR,FORT HOOD,76544-1500,11.0,63.0,49.0,29.0,"84001 CLEMENT DR FORT HOOD,TX 76544-1500",31.1130758,-97.8291816
97,14906129,KILLEEN ISD,MAXDALE ELEM.,3,INDEPENDENT,2600 WESTWOOD DR,KILLEEN,76549-3352,29.0,65.0,40.0,14.0,"2600 WESTWOOD DR KILLEEN,TX 76549-3352",31.10026389999999,-97.771468
98,14906130,KILLEEN ISD,IRA CROSS JR. E,3,INDEPENDENT,1910 HERNDON DR,KILLEEN,76543-5237,25.0,85.0,50.0,23.0,"1910 HERNDON DR KILLEEN,TX 76543-5237",31.0902171,-97.70170499999999
99,14906131,KILLEEN ISD,IDUMA ELEM.,3,INDEPENDENT,4400 FOSTER LN,KILLEEN,76549-2782,19.0,83.0,44.0,18.0,"4400 FOSTER LN KILLEEN,TX 76549-2782",31.0934694,-97.7990748
100,14906132,KILLEEN ISD,OVETA CULP HOBB,3,INDEPENDENT,53210 LOST MOCCASIN,FORT HOOD,76544-4019,14.0,73.0,36.0,18.0,"53210 LOST MOCCASIN FORT HOOD,TX 76544-4019",31.1386823,-97.83083789999999
101,14906133,KILLEEN ISD,TIMBER RIDGE EL,3,INDEPENDENT,5402 WHITE ROCK DR,KILLEEN,76542-4365,43.0,118.0,53.0,23.0,"5402 WHITE ROCK DR KILLEEN,TX 76542-4365",31.0622613,-97.6928835
102,14906135,KILLEEN ISD,SAEGERT ELEM.,3,INDEPENDENT,5600 SCHORN DR,KILLEEN,76542-4651,14.0,104.0,66.0,38.0,"5600 SCHORN DR KILLEEN,TX 76542-4651",31.0617921,-97.7277783
103,14906136,KILLEEN ISD,SKIPCHA ELEM.,3,INDEPENDENT,515 PROSPECTOR TRL,HARKER HEIGHTS,76548-2408,19.0,138.0,99.0,51.0,"515 PROSPECTOR TRL HARKER HEIGHTS,TX 76548-2408",31.0536354,-97.6628149
104,14906137,KILLEEN ISD,RICHARD E. CAVA,3,INDEPENDENT,1200 N 10TH ST,NOLANVILLE,76559,18.0,78.0,51.0,21.0,"1200 N 10TH ST NOLANVILLE,TX 76559",31.0837999,-97.59693639999999
105,14906138,KILLEEN ISD,HAYNES ELEM.,3,INDEPENDENT,3309 W CANADIAN RIVER LOOP,KILLEEN,76549,28.0,122.0,71.0,35.0,"3309 W CANADIAN RIVER LOOP KILLEEN,TX 76549",31.0720524,-97.7922823
106,14906139,KILLEEN ISD,DR. JOSEPH A. F,3,INDEPENDENT,4910 KATY CREEK LN,KILLEEN,76549,33.0,138.0,88.0,43.0,"4910 KATY CREEK LN KILLEEN,TX 76549",31.0724742,-97.8077392
107,14906140,KILLEEN ISD,ALICE W. DOUSE,3,INDEPENDENT,700 REBECCA LYNN DR,KILLEEN,76542,21.0,133.0,85.0,42.0,"700 REBECCA LYNN DR KILLEEN,TX 76542",31.0301497,-97.74575929999999
108,14907102,ROGERS ISD,ROGERS ELEM.,3,INDEPENDENT,802 ROGERS CEMETRY RD,ROGERS,76569-9998,24.0,33.0,17.0,7.0,"802 ROGERS CEMETRY RD ROGERS,TX 76569-9998",30.9247362,-97.2251998
109,14908102,SALADO ISD,THOMAS ARNOLD E,3,INDEPENDENT,550 THOMAS ARNOLD RD,SALADO,76571,36.0,132.0,83.0,42.0,"550 THOMAS ARNOLD RD SALADO,TX 76571",30.9496424,-97.5426428
110,14909102,TEMPLE ISD,CATER ELEM.,3,INDEPENDENT,4111 LARK TRL,TEMPLE,76502-1247,17.0,44.0,26.0,12.0,"4111 LARK TRL TEMPLE,TX 76502-1247",31.08442,-97.39514299999999
111,14909107,TEMPLE ISD,JEFFERSON ELEM.,3,INDEPENDENT,2616 N 3RD ST,TEMPLE,76501-1345,21.0,71.0,44.0,21.0,"2616 N 3RD ST TEMPLE,TX 76501-1345",31.1214258,-97.33729
112,14909110,TEMPLE ISD,SCOTT ELEM.,3,INDEPENDENT,2301 W AVE P,TEMPLE,76504-6552,29.0,54.0,26.0,8.0,"2301 W AVE P TEMPLE,TX 76504-6552",31.0870853,-97.37174879999999
113,14909111,TEMPLE ISD,THORNTON ELEM.,3,INDEPENDENT,2825 COTTONWOOD LN,TEMPLE,76502-2575,39.0,71.0,33.0,13.0,"2825 COTTONWOOD LN TEMPLE,TX 76502-2575",31.0740595,-97.3828715
114,14909114,TEMPLE ISD,WESTERN HILLS E,3,INDEPENDENT,600 ARAPAHO DR,TEMPLE,76504-3724,20.0,41.0,21.0,12.0,"600 ARAPAHO DR TEMPLE,TX 76504-3724",31.1010682,-97.37790729999999
115,14909116,TEMPLE ISD,RAYE-ALLEN ELEM,3,INDEPENDENT,5015 S 5TH ST,TEMPLE,76502-3700,31.0,49.0,20.0,8.0,"5015 S 5TH ST TEMPLE,TX 76502-3700",31.047834,-97.3602037
116,14909117,TEMPLE ISD,KENNEDY-POWELL,3,INDEPENDENT,3707 W NUGENT AVE,TEMPLE,76504-8840,16.0,57.0,37.0,19.0,"3707 W NUGENT AVE TEMPLE,TX 76504-8840",31.1193335,-97.37641080000002
117,14909118,TEMPLE ISD,HECTOR P. GARCI,3,INDEPENDENT,2525 LAVENDUSKY DR,TEMPLE,76501-4818,13.0,47.0,23.0,9.0,"2525 LAVENDUSKY DR TEMPLE,TX 76501-4818",31.0957438,-97.3096927
118,14910101,TROY ISD,TROY ELEM.,3,INDEPENDENT,808 E AUSTIN AVE,TROY,76579-0409,28.0,94.0,52.0,15.0,"808 E AUSTIN AVE TROY,TX 76579-0409",31.199982,-97.29416499999999
119,15802001,GEORGE GERVIN A,GEORGE GERVIN A,3,CHARTER,6944 S SUNBELT DR,SAN ANTONIO,78218,16.0,20.0,15.0,7.0,"6944 S SUNBELT DR SAN ANTONIO,TX 78218",29.4916396,-98.4282752
120,15805041,NEW FRONTIERS P,FRANK L. MADLA,3,CHARTER,4018 S PRESA,SAN ANTONIO,78223,21.0,15.0,4.0,1.0,"4018 S PRESA SAN ANTONIO,TX 78223",29.3836877,-98.47768719999999
121,15806101,SCHOOL OF EXCEL,DR. HARMON W. K,3,CHARTER,802 OBLATE DR,SAN ANTONIO,78216,6.0,23.0,10.0,3.0,"802 OBLATE DR SAN ANTONIO,TX 78216",29.5040219,-98.4944081
122,15806106,SCHOOL OF EXCEL,DR. DAVID C. WA,3,CHARTER,6500 IH 35 N STE C,SAN ANTONIO,78218,9.0,8.0,2.0,0.0,"6500 IH 35 N STE C SAN ANTONIO,TX 78218",29.48977369999999,-98.39666509999999
123,15807001,SOUTHWEST PREPA,SOUTHWEST PREPA,3,CHARTER,1258 AUSTIN HWY,SAN ANTONIO,78209-4820,12.0,4.0,2.0,0.0,"1258 AUSTIN HWY SAN ANTONIO,TX 78209-4820",29.4887604,-98.4431425
124,15807002,SOUTHWEST PREPA,SOUTHWEST PREPA,3,CHARTER,735 S WW WHITE RD,SAN ANTONIO,78220-2524,8.0,2.0,0.0,0.0,"735 S WW WHITE RD SAN ANTONIO,TX 78220-2524",29.4192259,-98.40606539999999
125,15807101,SOUTHWEST PREPA,SOUTHWEST PREP,3,CHARTER,4151 CULEBRA RD,SAN ANTONIO,78228,11.0,6.0,0.0,0.0,"4151 CULEBRA RD SAN ANTONIO,TX 78228",29.4488378,-98.58725489999999
126,15807102,SOUTHWEST PREPA,SEGUIN ELEM.,3,CHARTER,2400 WALNUT,SEGUIN,78155,7.0,9.0,6.0,3.0,"2400 WALNUT SEGUIN,TX 78155",29.5729675,-97.9349008
127,15808009,INSPIRE ACADEMI,ANNE FRANK INSP,3,CHARTER,11216 BANDERA RD,SAN ANTONIO,78249,13.0,12.0,6.0,4.0,"11216 BANDERA RD SAN ANTONIO,TX 78249",29.54774299999999,-98.6603164
128,15808012,INSPIRE ACADEMI,JHW INSPIRE ACA,3,CHARTER,13326 N HWY 183,GONZALES,78629,5.0,0.0,0.0,0.0,"13326 N HWY 183 GONZALES,TX 78629",29.6345726,-97.5801388
129,15809101,BEXAR COUNTY AC,BEXAR COUNTY AC,3,CHARTER,1481 HILLCREST DR,SAN ANTONIO,78228,12.0,17.0,8.0,1.0,"1481 HILLCREST DR SAN ANTONIO,TX 78228",29.4675133,-98.5716487
130,15815001,HERITAGE ACADEM,HERITAGE ACAD.,3,CHARTER,8750 FOURWINDS DR,WINDCREST,78239,9.0,15.0,3.0,2.0,"8750 FOURWINDS DR WINDCREST,TX 78239",29.5189268,-98.39340659999999
131,15822001,JUBILEE ACADEMI,JUBILEE SAN ANT,3,CHARTER,4427 CHANDLER RD,SAN ANTONIO,78222,39.0,50.0,26.0,15.0,"4427 CHANDLER RD SAN ANTONIO,TX 78222",29.3718085,-98.40591549999999
132,15822002,JUBILEE ACADEMI,JUBILEE HIGHLAN,3,CHARTER,1515 GOLIAD RD,SAN ANTONIO,78223,48.0,53.0,29.0,11.0,"1515 GOLIAD RD SAN ANTONIO,TX 78223",29.372509,-98.4474705
133,15822004,JUBILEE ACADEMI,JUBILEE - LAKE,3,CHARTER,325 CASTROVILLE RD,SAN ANTONIO,78207,27.0,20.0,3.0,1.0,"325 CASTROVILLE RD SAN ANTONIO,TX 78207",29.42075,-98.542442
134,15822005,JUBILEE ACADEMI,JUBILEE HIGHLAN,3,CHARTER,901 E DREXEL AVE,SAN ANTONIO,78210,8.0,26.0,14.0,5.0,"901 E DREXEL AVE SAN ANTONIO,TX 78210",29.400807,-98.45625559999999
135,15822006,JUBILEE ACADEMI,JUBILEE KINGSVI,3,CHARTER,201 N 19TH ST,KINGSVILLE,78363,9.0,16.0,9.0,4.0,"201 N 19TH ST KINGSVILLE,TX 78363",27.5179363,-97.84864619999999
136,15822007,JUBILEE ACADEMI,JUBILEE LIVING,3,CHARTER,4955 PABLO KISEL,BROWNSVILLE,78526,7.0,37.0,22.0,11.0,"4955 PABLO KISEL BROWNSVILLE,TX 78526",25.9771812,-97.5060518
137,15822008,JUBILEE ACADEMI,JUBILEE HARLING,3,CHARTER,4501 W EXPY 83,HARLINGEN,78552,6.0,33.0,21.0,11.0,"4501 W EXPY 83 HARLINGEN,TX 78552",26.1878833,-97.74548980000002
138,15822009,JUBILEE ACADEMI,JUBILEE WELLS B,3,CHARTER,15201 BURNET RD,AUSTIN,78728,37.0,54.0,29.0,16.0,"15201 BURNET RD AUSTIN,TX 78728",30.4585441,-97.69239909999999
139,15822010,JUBILEE ACADEMI,JUBILEE BROWNSV,3,CHARTER,4955 PABLO KISEL,BROWNSVILLE,78526,16.0,29.0,12.0,4.0,"4955 PABLO KISEL BROWNSVILLE,TX 78526",25.9771812,-97.5060518
140,15822011,JUBILEE ACADEMI,JUBILEE LEADERS,3,CHARTER,4150 JAIME ZAPATA,BROWNSVILLE,78521,9.0,11.0,2.0,1.0,"4150 JAIME ZAPATA BROWNSVILLE,TX 78521",25.9399793,-97.45704409999999
141,15825001,LIGHTHOUSE CHAR,LIGHTHOUSE CHAR,3,CHARTER,8138 WESTSHIRE DR,SAN ANTONIO,78227,8.0,18.0,5.0,0.0,"8138 WESTSHIRE DR SAN ANTONIO,TX 78227",29.410621,-98.648952
142,15827002,SCHOOL OF SCIEN,SCHOOL OF SCIEN,3,CHARTER,12200 CROWNPOINT DR STE 100,SAN ANTONIO,78233,9.0,42.0,29.0,14.0,"12200 CROWNPOINT DR STE 100 SAN ANTONIO,TX 78233",29.5518904,-98.3660957
143,15827003,SCHOOL OF SCIEN,SCHOOL OF SCIEN,3,CHARTER,16200 TX 249,HOUSTON,77086,26.0,46.0,24.0,12.0,"16200 TX 249 HOUSTON,TX 77086",29.9442727,-95.5237566
144,15827004,SCHOOL OF SCIEN,SCHOOL OF SCIEN,3,CHARTER,330 N SAM HOUSTON PKWY E,HOUSTON,77060,15.0,30.0,13.0,5.0,"330 N SAM HOUSTON PKWY E HOUSTON,TX 77060",29.9385579,-95.4005815
145,15828002,HARMONY SCIENCE,HARMONY SCHOOL,3,CHARTER,8125 GLEN MONT DR,SAN ANTONIO,78239,13.0,31.0,8.0,0.0,"8125 GLEN MONT DR SAN ANTONIO,TX 78239",29.51089339999999,-98.34712999999999
146,15828004,HARMONY SCIENCE,HARMONY SCHOOL,3,CHARTER,4608 DAUGHERTY AVE,LAREDO,78041,19.0,80.0,43.0,25.0,"4608 DAUGHERTY AVE LAREDO,TX 78041",27.539106,-99.47338599999999
147,15828005,HARMONY SCIENCE,HARMONY SCIENCE,3,CHARTER,1124 CENTRAL BLVD,BROWNSVILLE,78520,18.0,31.0,13.0,4.0,"1124 CENTRAL BLVD BROWNSVILLE,TX 78520",25.9212028,-97.51068
148,15828006,HARMONY SCIENCE,HARMONY SCHOOL,3,CHARTER,2015 SW LOOP 410,SAN ANTONIO,78227,26.0,60.0,26.0,9.0,"2015 SW LOOP 410 SAN ANTONIO,TX 78227",29.41161799999999,-98.65153400000001
149,15830001,BROOKS ACADEMIE,BROOKS ACAD. OF,3,CHARTER,3803 LYSTER RD,SAN ANTONIO,78235,47.0,74.0,41.0,20.0,"3803 LYSTER RD SAN ANTONIO,TX 78235",29.3383398,-98.42660599999999
150,15830101,BROOKS ACADEMIE,BROOKS COLLEGIA,3,CHARTER,4802 VANCE JACKSON RD,SAN ANTONIO,78230,27.0,60.0,28.0,13.0,"4802 VANCE JACKSON RD SAN ANTONIO,TX 78230",29.5213386,-98.53427409999999
151,15830102,BROOKS ACADEMIE,BROOKS ACAD. LO,3,CHARTER,4802 VANCE JACKSON RD,SAN ANTONIO,78230,6.0,11.0,8.0,4.0,"4802 VANCE JACKSON RD SAN ANTONIO,TX 78230",29.5213386,-98.53427409999999
152,15830103,BROOKS ACADEMIE,BROOKS ACAD. OA,3,CHARTER,6070 BABCOCK RD,SAN ANTONIO,78240,5.0,28.0,22.0,17.0,"6070 BABCOCK RD SAN ANTONIO,TX 78240",29.5320147,-98.60628030000001
153,15831001,SCHOOL OF SCIEN,SCHOOL OF SCIEN,3,CHARTER,5707 BANDERA RD,SAN ANTONIO,78238,8.0,45.0,22.0,12.0,"5707 BANDERA RD SAN ANTONIO,TX 78238",29.4824439,-98.59691509999999
154,15831002,SCHOOL OF SCIEN,SCHOOL OF SCIEN,3,CHARTER,6633 EVANS RD,CORPUS CHRISTI,78413,19.0,80.0,41.0,11.0,"6633 EVANS RD CORPUS CHRISTI,TX 78413",27.6995629,-97.4198777
155,15831003,SCHOOL OF SCIEN,SCHOOL OF SCIEN,3,CHARTER,10550 WESTOFFICE DR,HOUSTON,77042,11.0,36.0,21.0,10.0,"10550 WESTOFFICE DR HOUSTON,TX 77042",29.7207431,-95.55360669999999
156,15831004,SCHOOL OF SCIEN,SCHOOL OF SCIEN,3,CHARTER,12042 CULEBRA RD,SAN ANTONIO,78253,5.0,17.0,12.0,6.0,"12042 CULEBRA RD SAN ANTONIO,TX 78253",29.5030158,-98.7309501
157,15834002,BASIS TEXAS,BASIS SAN ANTON,3,CHARTER,318 E RAMSEY RD,SAN ANTONIO,78216,6.0,112.0,87.0,61.0,"318 E RAMSEY RD SAN ANTONIO,TX 78216",29.5270031,-98.49106499999999
158,15834101,BASIS TEXAS,BASIS SAN ANTON,3,CHARTER,8519 FLOYD CURL DR,SAN ANTONIO,78240,6.0,122.0,94.0,51.0,"8519 FLOYD CURL DR SAN ANTONIO,TX 78240",29.5205687,-98.59013139999999
159,15835001,GREAT HEARTS TE,GREAT HEARTS MO,3,CHARTER,211 BELKNAP PLACE,SAN ANTONIO,78212,4.0,69.0,51.0,28.0,"211 BELKNAP PLACE SAN ANTONIO,TX 78212",29.448668,-98.4979891
160,15835003,GREAT HEARTS TE,GREAT HEARTS NO,3,CHARTER,17223 JONES MALTSBERGER RD,SAN ANTONIO,78247,8.0,109.0,61.0,35.0,"17223 JONES MALTSBERGER RD SAN ANTONIO,TX 78247",29.5982702,-98.4232608
161,15835004,GREAT HEARTS TE,GREAT HEARTS IR,3,CHARTER,3350 W STORY RD,IRVING,75038,9.0,80.0,55.0,27.0,"3350 W STORY RD IRVING,TX 75038",32.8707644,-96.9909955
162,15835005,GREAT HEARTS TE,GREAT HEARTS WE,3,CHARTER,8702 INGRAM RD,SAN ANTONIO,78245,47.0,59.0,29.0,9.0,"8702 INGRAM RD SAN ANTONIO,TX 78245",29.4443997,-98.6524331
163,15836001,ELEANOR KOLITZ,ELEANOR KOLITZ,3,CHARTER,11327 DREAMLAND DR,SAN ANTONIO,78230,4.0,40.0,27.0,11.0,"11327 DREAMLAND DR SAN ANTONIO,TX 78230",29.544192,-98.533349
164,15901101,ALAMO HEIGHTS I,CAMBRIDGE ELEM.,3,INDEPENDENT,1001 TOWNSEND AVE,SAN ANTONIO,78209-5199,34.0,128.0,72.0,35.0,"1001 TOWNSEND AVE SAN ANTONIO,TX 78209-5199",29.480169,-98.46614
165,15901104,ALAMO HEIGHTS I,WOODRIDGE ELEM.,3,INDEPENDENT,100 WOODRIDGE,SAN ANTONIO,78209-2999,26.0,146.0,102.0,58.0,"100 WOODRIDGE SAN ANTONIO,TX 78209-2999",29.5028116,-98.45456209999999
166,15904101,HARLANDALE ISD,CARROLL BELL EL,3,INDEPENDENT,519 W HARDING,SAN ANTONIO,78221-1804,12.0,34.0,16.0,1.0,"519 W HARDING SAN ANTONIO,TX 78221-1804",29.3518518,-98.5048735
167,15904102,HARLANDALE ISD,BELLAIRE ELEM.,3,INDEPENDENT,142 E AMBER PL,SAN ANTONIO,78221-2499,16.0,47.0,29.0,11.0,"142 E AMBER PL SAN ANTONIO,TX 78221-2499",29.3432986,-98.5017993
168,15904103,HARLANDALE ISD,COLLIER ELEM.,3,INDEPENDENT,834 W SOUTHCROSS BLVD,SAN ANTONIO,78211-2745,7.0,56.0,24.0,6.0,"834 W SOUTHCROSS BLVD SAN ANTONIO,TX 78211-2745",29.3678078,-98.523314
169,15904104,HARLANDALE ISD,COLUMBIA HEIGHT,3,INDEPENDENT,1610 FITCH AVE,SAN ANTONIO,78211-2199,29.0,23.0,12.0,6.0,"1610 FITCH AVE SAN ANTONIO,TX 78211-2199",29.3697313,-98.53088699999999
170,15904105,HARLANDALE ISD,STONEWALL-FLAND,3,INDEPENDENT,804 STONEWALL,SAN ANTONIO,78211-1799,21.0,45.0,22.0,10.0,"804 STONEWALL SAN ANTONIO,TX 78211-1799",29.3728779,-98.51795229999999
171,15904106,HARLANDALE ISD,V.M. ADAMS ELEM,3,INDEPENDENT,135 E SOUTHCROSS BLVD,SAN ANTONIO,78214-3598,32.0,38.0,20.0,10.0,"135 E SOUTHCROSS BLVD SAN ANTONIO,TX 78214-3598",29.3693965,-98.5019981
172,15904107,HARLANDALE ISD,GILLETTE ELEM.,3,INDEPENDENT,625 GILLETTE BLVD,SAN ANTONIO,78221-3722,14.0,40.0,18.0,7.0,"625 GILLETTE BLVD SAN ANTONIO,TX 78221-3722",29.330963,-98.51819379999999
173,15904108,HARLANDALE ISD,H.W. SCHULZE EL,3,INDEPENDENT,9131 YETT BLVD,SAN ANTONIO,78221-4199,28.0,74.0,32.0,9.0,"9131 YETT BLVD SAN ANTONIO,TX 78221-4199",29.3307151,-98.49290739999999
174,15904109,HARLANDALE ISD,MORRILL ELEM.,3,INDEPENDENT,5200 S FLORES ST,SAN ANTONIO,78214-1499,7.0,36.0,18.0,6.0,"5200 S FLORES ST SAN ANTONIO,TX 78214-1499",29.3743633,-98.4975384
175,15904110,HARLANDALE ISD,RAYBURN ELEM.,3,INDEPENDENT,635 RAYBURN DR,SAN ANTONIO,78221-1346,14.0,32.0,17.0,8.0,"635 RAYBURN DR SAN ANTONIO,TX 78221-1346",29.3579603,-98.5146925
176,15904113,HARLANDALE ISD,VESTAL ELEM.,3,INDEPENDENT,1102 CANTRELL DR,SAN ANTONIO,78221-2599,9.0,38.0,18.0,12.0,"1102 CANTRELL DR SAN ANTONIO,TX 78221-2599",29.348262,-98.52161819999999
177,15904114,HARLANDALE ISD,WRIGHT ELEM.,3,INDEPENDENT,115 E HUFF AVE,SAN ANTONIO,78214-2230,13.0,40.0,13.0,4.0,"115 E HUFF AVE SAN ANTONIO,TX 78214-2230",29.3642364,-98.49256439999999
178,15904116,HARLANDALE ISD,E.H. GILBERT EL,3,INDEPENDENT,931 E SOUTHCROSS BLVD,SAN ANTONIO,78214-1896,22.0,41.0,17.0,5.0,"931 E SOUTHCROSS BLVD SAN ANTONIO,TX 78214-1896",29.3700764,-98.4857042
179,15905104,EDGEWOOD ISD,ROY CISNEROS EL,3,INDEPENDENT,3011 RUIZ,SAN ANTONIO,78237-2169,24.0,40.0,12.0,3.0,"3011 RUIZ SAN ANTONIO,TX 78237-2169",29.4390677,-98.54969919999999
180,15905106,EDGEWOOD ISD,ALONSO S. PERAL,3,INDEPENDENT,1507 CERALVO ST,SAN ANTONIO,78237-4312,15.0,40.0,14.0,3.0,"1507 CERALVO ST SAN ANTONIO,TX 78237-4312",29.4091285,-98.5485406
181,15905108,EDGEWOOD ISD,GARDENDALE ELEM,3,INDEPENDENT,1731 DAHLGREEN ST,SAN ANTONIO,78237-3631,16.0,35.0,13.0,6.0,"1731 DAHLGREEN ST SAN ANTONIO,TX 78237-3631",29.4121029,-98.56665059999999
182,15905109,EDGEWOOD ISD,L.B. JOHNSON EL,3,INDEPENDENT,6515 W COMMERCE ST,SAN ANTONIO,78227-1598,17.0,47.0,20.0,6.0,"6515 W COMMERCE ST SAN ANTONIO,TX 78227-1598",29.435715,-98.5903723
183,15905110,EDGEWOOD ISD,LAS PALMAS ELEM,3,INDEPENDENT,115 LAS PALMAS DR,SAN ANTONIO,78237-3142,35.0,23.0,7.0,0.0,"115 LAS PALMAS DR SAN ANTONIO,TX 78237-3142",29.4210438,-98.5472963
184,15905112,EDGEWOOD ISD,LOMA PARK ELEM.,3,INDEPENDENT,400 AURORA DR,SAN ANTONIO,78228-5999,36.0,39.0,20.0,8.0,"400 AURORA DR SAN ANTONIO,TX 78228-5999",29.4426891,-98.5741405
185,15905113,EDGEWOOD ISD,ROOSEVELT ELEM.,3,INDEPENDENT,3823 FORTUNA CT,SAN ANTONIO,78237-1359,26.0,32.0,17.0,8.0,"3823 FORTUNA CT SAN ANTONIO,TX 78237-1359",29.4369788,-98.56257339999999
186,15905114,EDGEWOOD ISD,STAFFORD ELEM.,3,INDEPENDENT,415 SW 36TH ST,SAN ANTONIO,78237-2607,18.0,37.0,16.0,7.0,"415 SW 36TH ST SAN ANTONIO,TX 78237-2607",29.4251339,-98.57321759999999
187,15905116,EDGEWOOD ISD,WINSTON ELEM.,3,INDEPENDENT,2500 S GENERAL MCMULLEN DR,SAN ANTONIO,78226-1699,18.0,35.0,14.0,8.0,"2500 S GENERAL MCMULLEN DR SAN ANTONIO,TX 78226-1699",29.3902617,-98.5618346
188,15905117,EDGEWOOD ISD,H.B. GONZALEZ E,3,INDEPENDENT,2803 CASTROVILLE RD,SAN ANTONIO,78237-2253,31.0,28.0,12.0,5.0,"2803 CASTROVILLE RD SAN ANTONIO,TX 78237-2253",29.4102164,-98.5840351
189,15906101,RANDOLPH FIELD,RANDOLPH ELEM.,3,INDEPENDENT,BLDG 146,RANDOLPH A F B,78148-1217,6.0,97.0,70.0,42.0,"BLDG 146 RANDOLPH A F B,TX 78148-1217",29.5249047,-98.28147469999999
190,15907026,SAN ANTONIO ISD,ADVANCED LEARNI,3,INDEPENDENT,621 W EUCLID,SAN ANTONIO,78212,19.0,47.0,33.0,16.0,"621 W EUCLID SAN ANTONIO,TX 78212",29.4362104,-98.4995538
191,15907101,SAN ANTONIO ISD,ARNOLD ELEM.,3,INDEPENDENT,467 FREILING DR,SAN ANTONIO,78213-3907,16.0,29.0,12.0,5.0,"467 FREILING DR SAN ANTONIO,TX 78213-3907",29.4915442,-98.5370538
192,15907103,SAN ANTONIO ISD,CHARLES C. BALL,3,INDEPENDENT,343 KOEHLER CT,SAN ANTONIO,78223-2999,27.0,19.0,12.0,0.0,"343 KOEHLER CT SAN ANTONIO,TX 78223-2999",29.3667536,-98.46152719999999
193,15907105,SAN ANTONIO ISD,BASKIN ELEM.,3,INDEPENDENT,630 CRESTVIEW DR,SAN ANTONIO,78201-6622,14.0,43.0,25.0,13.0,"630 CRESTVIEW DR SAN ANTONIO,TX 78201-6622",29.4866504,-98.56175789999999
194,15907106,SAN ANTONIO ISD,BEACON HILL ACA,3,INDEPENDENT,1411 W ASHBY PL,SAN ANTONIO,78201-6337,12.0,28.0,19.0,13.0,"1411 W ASHBY PL SAN ANTONIO,TX 78201-6337",29.4499657,-98.514521
195,15907107,SAN ANTONIO ISD,BONHAM ACAD.,3,INDEPENDENT,925 S ST MARY'S ST,SAN ANTONIO,78205-3410,24.0,24.0,10.0,4.0,"925 S ST MARY'S ST SAN ANTONIO,TX 78205-3410",29.4142871,-98.489312
196,15907110,SAN ANTONIO ISD,J.T. BRACKENRID,3,INDEPENDENT,1214 GUADALUPE ST,SAN ANTONIO,78207-5597,42.0,45.0,17.0,4.0,"1214 GUADALUPE ST SAN ANTONIO,TX 78207-5597",29.418139,-98.5142247
197,15907112,SAN ANTONIO ISD,BRISCOE ELEM.,3,INDEPENDENT,2015 S FLORES ST,SAN ANTONIO,78204-1990,19.0,21.0,12.0,2.0,"2015 S FLORES ST SAN ANTONIO,TX 78204-1990",29.405086,-98.503499
198,15907114,SAN ANTONIO ISD,CAMERON ELEM.,3,INDEPENDENT,3635 BELGIUM LN,SAN ANTONIO,78219,34.0,32.0,8.0,2.0,"3635 BELGIUM LN SAN ANTONIO,TX 78219",29.43975459999999,-98.42694709999999
199,15907116,SAN ANTONIO ISD,COLLINS GARDEN,3,INDEPENDENT,167 HARRIMAN PL,SAN ANTONIO,78204-2453,28.0,33.0,17.0,8.0,"167 HARRIMAN PL SAN ANTONIO,TX 78204-2453",29.397613,-98.517792
200,15907117,SAN ANTONIO ISD,AGNES COTTON AC,3,INDEPENDENT,1616 BLANCO RD,SAN ANTONIO,78212-2796,6.0,28.0,20.0,12.0,"1616 BLANCO RD SAN ANTONIO,TX 78212-2796",29.4608874,-98.50697269999999
201,15907118,SAN ANTONIO ISD,DAVID CROCKETT,3,INDEPENDENT,2215 MORALES ST,SAN ANTONIO,78207-2599,27.0,41.0,14.0,6.0,"2215 MORALES ST SAN ANTONIO,TX 78207-2599",29.4335408,-98.5250727
202,15907119,SAN ANTONIO ISD,DOUGLASS ACAD.,3,INDEPENDENT,318 MARTIN LUTHER KING,SAN ANTONIO,78203,18.0,20.0,5.0,1.0,"318 MARTIN LUTHER KING SAN ANTONIO,TX 78203",29.4130003,-98.4740006
203,15907121,SAN ANTONIO ISD,DE ZAVALA ELEM.,3,INDEPENDENT,2311 SAN LUIS ST,SAN ANTONIO,78207-4736,15.0,38.0,18.0,9.0,"2311 SAN LUIS ST SAN ANTONIO,TX 78207-4736",29.423018,-98.52472100000001
204,15907123,SAN ANTONIO ISD,FENWICK ACAD.,3,INDEPENDENT,1930 WAVERLY AVE,SAN ANTONIO,78228-5399,21.0,20.0,7.0,4.0,"1930 WAVERLY AVE SAN ANTONIO,TX 78228-5399",29.4482803,-98.54077439999999
205,15907124,SAN ANTONIO ISD,MURIEL FORBES A,3,INDEPENDENT,2630 SALLY GAY DR,SAN ANTONIO,78223-2239,6.0,27.0,11.0,4.0,"2630 SALLY GAY DR SAN ANTONIO,TX 78223-2239",29.372035,-98.4520986
206,15907125,SAN ANTONIO ISD,FOSTER ACAD.,3,INDEPENDENT,6718 PECAN VLY DR,SAN ANTONIO,78223-3120,24.0,34.0,13.0,3.0,"6718 PECAN VLY DR SAN ANTONIO,TX 78223-3120",29.3599077,-98.4441923
207,15907126,SAN ANTONIO ISD,FRANKLIN ELEM.,3,INDEPENDENT,1915 W OLMOS DR,SAN ANTONIO,78201-3999,19.0,32.0,20.0,14.0,"1915 W OLMOS DR SAN ANTONIO,TX 78201-3999",29.474117,-98.5272605
208,15907127,SAN ANTONIO ISD,GATES ELEM.,3,INDEPENDENT,510 MORNINGVIEW DR,SAN ANTONIO,78220-3299,7.0,21.0,10.0,4.0,"510 MORNINGVIEW DR SAN ANTONIO,TX 78220-3299",29.4099234,-98.4278566
209,15907129,SAN ANTONIO ISD,CHARLES GRAEBNE,3,INDEPENDENT,530 HOOVER ST,SAN ANTONIO,78225-2229,28.0,38.0,18.0,8.0,"530 HOOVER ST SAN ANTONIO,TX 78225-2229",29.3848504,-98.52875429999999
210,15907131,SAN ANTONIO ISD,ROBERT B. GREEN,3,INDEPENDENT,122 W WHITTIER ST,SAN ANTONIO,78210-2895,5.0,14.0,8.0,2.0,"122 W WHITTIER ST SAN ANTONIO,TX 78210-2895",29.399409,-98.4838607
211,15907132,SAN ANTONIO ISD,HERFF ACAD.,3,INDEPENDENT,996 S HACKBERRY,SAN ANTONIO,78210,16.0,21.0,4.0,0.0,"996 S HACKBERRY SAN ANTONIO,TX 78210",29.4090793,-98.47267169999999
212,15907134,SAN ANTONIO ISD,HIGHLAND HILLS,3,INDEPENDENT,734 GLAMIS AVE,SAN ANTONIO,78223-1534,21.0,65.0,39.0,21.0,"734 GLAMIS AVE SAN ANTONIO,TX 78223-1534",29.3792404,-98.4414286
213,15907135,SAN ANTONIO ISD,HIGHLAND PARK E,3,INDEPENDENT,635 RIGSBY AVE,SAN ANTONIO,78210-3099,18.0,36.0,22.0,14.0,"635 RIGSBY AVE SAN ANTONIO,TX 78210-3099",29.3989317,-98.4623845
214,15907136,SAN ANTONIO ISD,HILLCREST ELEM.,3,INDEPENDENT,211 W MALONE AVE,SAN ANTONIO,78214-1024,8.0,28.0,14.0,3.0,"211 W MALONE AVE SAN ANTONIO,TX 78214-1024",29.3872478,-98.50512859999999
215,15907137,SAN ANTONIO ISD,HIRSCH ELEM.,3,INDEPENDENT,4826 SEABREEZE DR,SAN ANTONIO,78220-4809,50.0,64.0,28.0,18.0,"4826 SEABREEZE DR SAN ANTONIO,TX 78220-4809",29.400986,-98.3988
216,15907139,SAN ANTONIO ISD,HUPPERTZ ELEM.,3,INDEPENDENT,247 BANGOR DR,SAN ANTONIO,78228-4799,26.0,24.0,14.0,8.0,"247 BANGOR DR SAN ANTONIO,TX 78228-4799",29.4549049,-98.574119
218,15907141,SAN ANTONIO ISD,ELOISE JAPHET A,3,INDEPENDENT,314 ASTOR ST,SAN ANTONIO,78210-5198,39.0,45.0,20.0,7.0,"314 ASTOR ST SAN ANTONIO,TX 78210-5198",29.3869967,-98.46785179999999
219,15907142,SAN ANTONIO ISD,M.L. KING ACAD.,3,INDEPENDENT,3501 MARTIN LUTHER KING DR,SAN ANTONIO,78220-2399,19.0,14.0,6.0,2.0,"3501 MARTIN LUTHER KING DR SAN ANTONIO,TX 78220-2399",29.41442929999999,-98.4210585
220,15907143,SAN ANTONIO ISD,GEORGE E. KELLY,3,INDEPENDENT,1026 THOMPSON PL,SAN ANTONIO,78226-1495,9.0,26.0,13.0,6.0,"1026 THOMPSON PL SAN ANTONIO,TX 78226-1495",29.3945054,-98.541621
221,15907144,SAN ANTONIO ISD,SARAH S. KING E,3,INDEPENDENT,1001 CERALVO ST,SAN ANTONIO,78207-7199,22.0,45.0,17.0,6.0,"1001 CERALVO ST SAN ANTONIO,TX 78207-7199",29.4079809,-98.53768529999999
222,15907146,SAN ANTONIO ISD,LAMAR ELEM.,3,INDEPENDENT,201 PARLAND PL,SAN ANTONIO,78209-6530,10.0,27.0,15.0,8.0,"201 PARLAND PL SAN ANTONIO,TX 78209-6530",29.4589539,-98.4661134
223,15907147,SAN ANTONIO ISD,BOWDEN ACAD.,3,INDEPENDENT,515 WILLOW ST,SAN ANTONIO,78202-1297,28.0,18.0,8.0,1.0,"515 WILLOW ST SAN ANTONIO,TX 78202-1297",29.4319369,-98.46992829999999
224,15907148,SAN ANTONIO ISD,MADISON ELEM.,3,INDEPENDENT,2900 W WOODLAWN AVE,SAN ANTONIO,78228-5099,21.0,37.0,26.0,8.0,"2900 W WOODLAWN AVE SAN ANTONIO,TX 78228-5099",29.455646,-98.5516279
225,15907149,SAN ANTONIO ISD,MARGIL ACAD.,3,INDEPENDENT,1000 PEREZ ST,SAN ANTONIO,78207,27.0,41.0,16.0,7.0,"1000 PEREZ ST SAN ANTONIO,TX 78207",29.4329586,-98.5134863
226,15907150,SAN ANTONIO ISD,MAVERICK ELEM.,3,INDEPENDENT,107 RALEIGH PL,SAN ANTONIO,78201-3113,24.0,36.0,21.0,14.0,"107 RALEIGH PL SAN ANTONIO,TX 78201-3113",29.4784259,-98.5469959
227,15907153,SAN ANTONIO ISD,DORIE MILLER EL,3,INDEPENDENT,207 LINCOLNSHIRE DR,SAN ANTONIO,78220-3199,5.0,19.0,7.0,4.0,"207 LINCOLNSHIRE DR SAN ANTONIO,TX 78220-3199",29.4117107,-98.4385003
228,15907155,SAN ANTONIO ISD,NEAL ELEM.,3,INDEPENDENT,3407 CAPITOL AVE,SAN ANTONIO,78201-2503,9.0,29.0,13.0,6.0,"3407 CAPITOL AVE SAN ANTONIO,TX 78201-2503",29.4835631,-98.514685
229,15907157,SAN ANTONIO ISD,OGDEN ACAD.,3,INDEPENDENT,2215 LEAL ST,SAN ANTONIO,78207-2099,27.0,58.0,32.0,12.0,"2215 LEAL ST SAN ANTONIO,TX 78207-2099",29.4373537,-98.5371704
230,15907158,SAN ANTONIO ISD,PERSHING ELEM.,3,INDEPENDENT,600 SANDMEYER ST,SAN ANTONIO,78208-1699,16.0,29.0,16.0,7.0,"600 SANDMEYER ST SAN ANTONIO,TX 78208-1699",29.4403283,-98.4533414
231,15907160,SAN ANTONIO ISD,RIVERSIDE PARK,3,INDEPENDENT,202 SCHOOL ST,SAN ANTONIO,78210-3940,17.0,20.0,6.0,2.0,"202 SCHOOL ST SAN ANTONIO,TX 78210-3940",29.388482,-98.4822744
232,15907161,SAN ANTONIO ISD,ROGERS ACAD.,3,INDEPENDENT,620 MCILVAINE,SAN ANTONIO,78212-1898,28.0,31.0,11.0,7.0,"620 MCILVAINE SAN ANTONIO,TX 78212-1898",29.47285299999999,-98.502904
233,15907162,SAN ANTONIO ISD,DAVID BARKLEY-F,3,INDEPENDENT,1111 S NAVIDAD ST,SAN ANTONIO,78207-5824,40.0,42.0,12.0,6.0,"1111 S NAVIDAD ST SAN ANTONIO,TX 78207-5824",29.4160826,-98.5243435
234,15907163,SAN ANTONIO ISD,MARK TWAIN DUAL,3,INDEPENDENT,2411 SAN PEDRO,SAN ANTONIO,78212,1.0,18.0,11.0,9.0,"2411 SAN PEDRO SAN ANTONIO,TX 78212",29.4572095,-98.49950500000001
235,15907164,SAN ANTONIO ISD,SCHENCK ELEM.,3,INDEPENDENT,101 KATE SCHENCK AVE,SAN ANTONIO,78223-3305,18.0,43.0,21.0,9.0,"101 KATE SCHENCK AVE SAN ANTONIO,TX 78223-3305",29.361797,-98.436481
236,15907165,SAN ANTONIO ISD,SMITH ELEM.,3,INDEPENDENT,823 S GEVERS ST,SAN ANTONIO,78203-1896,21.0,16.0,7.0,2.0,"823 S GEVERS ST SAN ANTONIO,TX 78203-1896",29.4113219,-98.4572414
237,15907168,SAN ANTONIO ISD,P.F. STEWART EL,3,INDEPENDENT,1950 RIGSBY AVE,SAN ANTONIO,78210-4433,21.0,19.0,7.0,4.0,"1950 RIGSBY AVE SAN ANTONIO,TX 78210-4433",29.396805,-98.43182999999999
238,15907169,SAN ANTONIO ISD,STORM ELEM.,3,INDEPENDENT,435 BRADY BLVD,SAN ANTONIO,78207-8099,23.0,21.0,7.0,1.0,"435 BRADY BLVD SAN ANTONIO,TX 78207-8099",29.4027562,-98.5286332
239,15907172,SAN ANTONIO ISD,WASHINGTON ELEM,3,INDEPENDENT,1823 NOLAN ST,SAN ANTONIO,78202-2496,9.0,27.0,15.0,4.0,"1823 NOLAN ST SAN ANTONIO,TX 78202-2496",29.4277044,-98.4572414
240,15907174,SAN ANTONIO ISD,WILSON ELEM.,3,INDEPENDENT,1421 CLOWER ST,SAN ANTONIO,78201-3699,8.0,23.0,14.0,7.0,"1421 CLOWER ST SAN ANTONIO,TX 78201-3699",29.478149,-98.5191104
241,15907175,SAN ANTONIO ISD,WOODLAWN ACAD.,3,INDEPENDENT,1717 W MAGNOLIA AVE,SAN ANTONIO,78201-5498,22.0,29.0,18.0,11.0,"1717 W MAGNOLIA AVE SAN ANTONIO,TX 78201-5498",29.4566215,-98.5243864
242,15907176,SAN ANTONIO ISD,WOODLAWN HILLS,3,INDEPENDENT,110 W QUILL DR,SAN ANTONIO,78228-4094,21.0,22.0,7.0,1.0,"110 W QUILL DR SAN ANTONIO,TX 78228-4094",29.4656814,-98.56831489999999
243,15907179,SAN ANTONIO ISD,HAWTHORNE PRE-K,3,INDEPENDENT,115 W JOSEPHINE ST,SAN ANTONIO,78212-4186,20.0,48.0,27.0,9.0,"115 W JOSEPHINE ST SAN ANTONIO,TX 78212-4186",29.4460936,-98.48307179999999
245,15907210,SAN ANTONIO ISD,MISSION ACAD.,3,INDEPENDENT,9210 S PRESA ST,SAN ANTONIO,78223,14.0,41.0,21.0,12.0,"9210 S PRESA ST SAN ANTONIO,TX 78223",29.3301199,-98.4399289
246,15908104,SOUTH SAN ANTON,HUTCHINS ELEM.,3,INDEPENDENT,1919 W HUTCHINS PL,SAN ANTONIO,78224-1699,18.0,47.0,26.0,12.0,"1919 W HUTCHINS PL SAN ANTONIO,TX 78224-1699",29.3463524,-98.53773830000002
247,15908105,SOUTH SAN ANTON,KINDRED ELEM.,3,INDEPENDENT,7811 KINDRED ST,SAN ANTONIO,78224-1299,26.0,29.0,8.0,3.0,"7811 KINDRED ST SAN ANTONIO,TX 78224-1299",29.3501097,-98.5513189
248,15908106,SOUTH SAN ANTON,PALO ALTO ELEM.,3,INDEPENDENT,1725 PALO ALTO RD,SAN ANTONIO,78211-4099,24.0,58.0,27.0,15.0,"1725 PALO ALTO RD SAN ANTONIO,TX 78211-4099",29.3344143,-98.5533037
249,15908107,SOUTH SAN ANTON,PRICE ELEM.,3,INDEPENDENT,245 PRICE AVE,SAN ANTONIO,78211-2907,18.0,21.0,10.0,3.0,"245 PRICE AVE SAN ANTONIO,TX 78211-2907",29.3606552,-98.552703
250,15908108,SOUTH SAN ANTON,FRANK MADLA ELE,3,INDEPENDENT,6100 ROYALGATE DR,SAN ANTONIO,78242-1199,39.0,45.0,22.0,5.0,"6100 ROYALGATE DR SAN ANTONIO,TX 78242-1199",29.371872,-98.609443
251,15908109,SOUTH SAN ANTON,FIVE PALMS ELEM,3,INDEPENDENT,7138 FIVE PALMS DR,SAN ANTONIO,78242-1699,26.0,42.0,14.0,3.0,"7138 FIVE PALMS DR SAN ANTONIO,TX 78242-1699",29.358916,-98.61477699999999
252,15908110,SOUTH SAN ANTON,NEIL ARMSTRONG,3,INDEPENDENT,7111 APPLE VALLEY DR,SAN ANTONIO,78242-2099,21.0,48.0,23.0,7.0,"7111 APPLE VALLEY DR SAN ANTONIO,TX 78242-2099",29.356266,-98.62320419999999
253,15908112,SOUTH SAN ANTON,MIGUEL CARRILLO,3,INDEPENDENT,500 PRICE AVE,SAN ANTONIO,78211-4298,40.0,28.0,8.0,4.0,"500 PRICE AVE SAN ANTONIO,TX 78211-4298",29.3600889,-98.5587109
254,15908113,SOUTH SAN ANTON,ROY BENAVIDEZ E,3,INDEPENDENT,8340 SO IH 35,SAN ANTONIO,78224,49.0,74.0,33.0,10.0,"8340 SO IH 35 SAN ANTONIO,TX 78224",29.33993479999999,-98.5486694
255,15909101,SOMERSET ISD,SOMERSET ELEM.,3,INDEPENDENT,7840 6TH ST,SOMERSET,78069-0279,25.0,150.0,103.0,52.0,"7840 6TH ST SOMERSET,TX 78069-0279",29.2255358,-98.6552626
256,15909104,SOMERSET ISD,STAFF SERGEANT,3,INDEPENDENT,4135 SMITH RD,VON ORMY,78073,38.0,86.0,52.0,20.0,"4135 SMITH RD VON ORMY,TX 78073",29.2084812,-98.5882184
257,15910101,NORTH EAST ISD,CASTLE HILLS EL,3,INDEPENDENT,200 LEMONWOOD,SAN ANTONIO,78213-2409,11.0,71.0,51.0,28.0,"200 LEMONWOOD SAN ANTONIO,TX 78213-2409",29.52109729999999,-98.5196624
258,15910102,NORTH EAST ISD,COKER ELEM.,3,INDEPENDENT,302 HEIMER RD,SAN ANTONIO,78232-4887,20.0,94.0,47.0,22.0,"302 HEIMER RD SAN ANTONIO,TX 78232-4887",29.5650381,-98.4755569
259,15910103,NORTH EAST ISD,COLONIAL HILLS,3,INDEPENDENT,2627 KERRYBROOK CT,SAN ANTONIO,78230-4534,36.0,35.0,21.0,12.0,"2627 KERRYBROOK CT SAN ANTONIO,TX 78230-4534",29.516039,-98.5363124
260,15910104,NORTH EAST ISD,DELLVIEW ELEM.,3,INDEPENDENT,7235 DEWHURST RD,SAN ANTONIO,78213-3437,4.0,33.0,20.0,6.0,"7235 DEWHURST RD SAN ANTONIO,TX 78213-3437",29.5009375,-98.5445501
261,15910105,NORTH EAST ISD,EAST TERRELL HI,3,INDEPENDENT,4415 BLOOMDALE DR,SAN ANTONIO,78218-3626,24.0,28.0,19.0,4.0,"4415 BLOOMDALE DR SAN ANTONIO,TX 78218-3626",29.490266,-98.4058898
262,15910106,NORTH EAST ISD,HARMONY HILLS E,3,INDEPENDENT,10727 MEMORY LN,SAN ANTONIO,78216-3400,27.0,70.0,32.0,11.0,"10727 MEMORY LN SAN ANTONIO,TX 78216-3400",29.5388258,-98.5007973
263,15910107,NORTH EAST ISD,JACKSON-KELLER,3,INDEPENDENT,1601 JACKSON KELLER RD,SAN ANTONIO,78213-3231,22.0,53.0,29.0,12.0,"1601 JACKSON KELLER RD SAN ANTONIO,TX 78213-3231",29.5094679,-98.5172575
264,15910108,NORTH EAST ISD,LARKSPUR ELEM.,3,INDEPENDENT,1802 LARKSPUR,SAN ANTONIO,78213-1436,37.0,49.0,17.0,8.0,"1802 LARKSPUR SAN ANTONIO,TX 78213-1436",29.5434389,-98.521582
265,15910109,NORTH EAST ISD,NORTHWOOD ELEM.,3,INDEPENDENT,519 PIKE RD,SAN ANTONIO,78209-3142,9.0,64.0,51.0,22.0,"519 PIKE RD SAN ANTONIO,TX 78209-3142",29.506146,-98.44058899999999
266,15910110,NORTH EAST ISD,OAK GROVE ELEM.,3,INDEPENDENT,3250 NACOGDOCHES RD,SAN ANTONIO,78217-3393,12.0,23.0,12.0,8.0,"3250 NACOGDOCHES RD SAN ANTONIO,TX 78217-3393",29.5271948,-98.4364136
267,15910111,NORTH EAST ISD,OLMOS ELEM.,3,INDEPENDENT,1103 ALLENA DR,SAN ANTONIO,78213-4107,8.0,31.0,12.0,1.0,"1103 ALLENA DR SAN ANTONIO,TX 78213-4107",29.497141,-98.51547699999999
268,15910112,NORTH EAST ISD,RIDGEVIEW ELEM.,3,INDEPENDENT,8223 N MCCULLOUGH AVE,SAN ANTONIO,78216-6499,9.0,49.0,27.0,14.0,"8223 N MCCULLOUGH AVE SAN ANTONIO,TX 78216-6499",29.512857,-98.492974
269,15910113,NORTH EAST ISD,SERNA ELEM.,3,INDEPENDENT,2569 N E LOOP 410,SAN ANTONIO,78217-5606,40.0,29.0,11.0,6.0,"2569 N E LOOP 410 SAN ANTONIO,TX 78217-5606",29.5175617,-98.41427879999999
270,15910114,NORTH EAST ISD,WALZEM ELEM.,3,INDEPENDENT,4618 WALZEM RD,SAN ANTONIO,78218-1609,17.0,21.0,8.0,3.0,"4618 WALZEM RD SAN ANTONIO,TX 78218-1609",29.509064,-98.4012939
272,15910116,NORTH EAST ISD,WILSHIRE ELEM.,3,INDEPENDENT,6523 CASCADE,SAN ANTONIO,78218-4210,13.0,41.0,24.0,10.0,"6523 CASCADE SAN ANTONIO,TX 78218-4210",29.487771,-98.42371999999999
273,15910117,NORTH EAST ISD,WINDCREST ELEM.,3,INDEPENDENT,465 FAIRCREST DR,SAN ANTONIO,78239-2448,26.0,65.0,30.0,10.0,"465 FAIRCREST DR SAN ANTONIO,TX 78239-2448",29.518272,-98.382835
274,15910118,NORTH EAST ISD,CAMELOT ELEM.,3,INDEPENDENT,7410 RAY BON DR,SAN ANTONIO,78218-2840,37.0,55.0,23.0,8.0,"7410 RAY BON DR SAN ANTONIO,TX 78218-2840",29.5006393,-98.3872724
275,15910119,NORTH EAST ISD,CLEAR SPRING EL,3,INDEPENDENT,4311 CLEAR SPRING DR,SAN ANTONIO,78217-3605,24.0,33.0,7.0,1.0,"4311 CLEAR SPRING DR SAN ANTONIO,TX 78217-3605",29.5300199,-98.4075429
276,15910120,NORTH EAST ISD,REGENCY PLACE E,3,INDEPENDENT,10222 BROADWAY,SAN ANTONIO,78217-4501,12.0,12.0,6.0,0.0,"10222 BROADWAY SAN ANTONIO,TX 78217-4501",29.5330241,-98.4474915
277,15910121,NORTH EAST ISD,EL DORADO ELEM.,3,INDEPENDENT,12634 EL SENDERO,SAN ANTONIO,78233-6396,43.0,30.0,9.0,3.0,"12634 EL SENDERO SAN ANTONIO,TX 78233-6396",29.5510255,-98.39401009999999
278,15910122,NORTH EAST ISD,MONTGOMERY ELEM,3,INDEPENDENT,7047 MONTGOMERY DR,SAN ANTONIO,78239-3398,29.0,33.0,12.0,4.0,"7047 MONTGOMERY DR SAN ANTONIO,TX 78239-3398",29.511479,-98.349576
279,15910123,NORTH EAST ISD,HIDDEN FOREST E,3,INDEPENDENT,802 SILVER SPRUCE,SAN ANTONIO,78232-2700,7.0,92.0,75.0,49.0,"802 SILVER SPRUCE SAN ANTONIO,TX 78232-2700",29.5875376,-98.50513780000001
280,15910124,NORTH EAST ISD,WOODSTONE ELEM.,3,INDEPENDENT,5602 FOUNTAINWOOD,SAN ANTONIO,78233-4999,32.0,59.0,30.0,14.0,"5602 FOUNTAINWOOD SAN ANTONIO,TX 78233-4999",29.5645746,-98.37602729999999
281,15910125,NORTH EAST ISD,STAHL ELEM.,3,INDEPENDENT,5222 STAHL RD,SAN ANTONIO,78247-1713,35.0,83.0,38.0,13.0,"5222 STAHL RD SAN ANTONIO,TX 78247-1713",29.58190309999999,-98.3857431
282,15910126,NORTH EAST ISD,THOUSAND OAKS E,3,INDEPENDENT,16080 HENDERSON PASS,SAN ANTONIO,78232-3299,28.0,78.0,42.0,23.0,"16080 HENDERSON PASS SAN ANTONIO,TX 78232-3299",29.5871103,-98.4495726
283,15910127,NORTH EAST ISD,NORTHERN HILLS,3,INDEPENDENT,13901 HIGGINS RD,SAN ANTONIO,78217-1243,31.0,72.0,34.0,12.0,"13901 HIGGINS RD SAN ANTONIO,TX 78217-1243",29.5680626,-98.3958031
284,15910128,NORTH EAST ISD,REDLAND OAKS EL,3,INDEPENDENT,16650 REDLAND RD,SAN ANTONIO,78247-4424,7.0,61.0,48.0,23.0,"16650 REDLAND RD SAN ANTONIO,TX 78247-4424",29.5922963,-98.43093139999999
285,15910129,NORTH EAST ISD,ENCINO PARK ELE,3,INDEPENDENT,2550 ENCINO RIO,SAN ANTONIO,78259-2031,9.0,91.0,75.0,42.0,"2550 ENCINO RIO SAN ANTONIO,TX 78259-2031",29.6347048,-98.44293429999999
286,15910130,NORTH EAST ISD,FOX RUN ELEM.,3,INDEPENDENT,6111 FOX CREEK,SAN ANTONIO,78247-1127,14.0,74.0,43.0,21.0,"6111 FOX CREEK SAN ANTONIO,TX 78247-1127",29.587947,-98.3676368
287,15910131,NORTH EAST ISD,OAK MEADOW ELEM,3,INDEPENDENT,2800 HUNTERS GREEN ST,SAN ANTONIO,78231-1602,9.0,55.0,46.0,24.0,"2800 HUNTERS GREEN ST SAN ANTONIO,TX 78231-1602",29.5685328,-98.53934699999999
288,15910133,NORTH EAST ISD,STONE OAK ELEM.,3,INDEPENDENT,21045 CRESENT OAK,SAN ANTONIO,78258-3228,8.0,102.0,83.0,53.0,"21045 CRESENT OAK SAN ANTONIO,TX 78258-3228",29.635337,-98.501223
289,15910134,NORTH EAST ISD,LONGS CREEK ELE,3,INDEPENDENT,15806 O'CONNOR,SAN ANTONIO,78247-1711,6.0,87.0,67.0,35.0,"15806 O'CONNOR SAN ANTONIO,TX 78247-1711",29.5888329,-98.395467
290,15910135,NORTH EAST ISD,HUEBNER ELEM.,3,INDEPENDENT,16311 HUEBNER RD,SAN ANTONIO,78248-1696,18.0,88.0,59.0,43.0,"16311 HUEBNER RD SAN ANTONIO,TX 78248-1696",29.587541,-98.53206499999999
291,15910136,NORTH EAST ISD,HARDY OAK ELEM.,3,INDEPENDENT,22900 HARDY OAK BLVD,SAN ANTONIO,78258-3914,6.0,116.0,93.0,63.0,"22900 HARDY OAK BLVD SAN ANTONIO,TX 78258-3914",29.65607259999999,-98.4944149
292,15910137,NORTH EAST ISD,WETMORE ELEM.,3,INDEPENDENT,3250 THOUSAND OAKS,SAN ANTONIO,78247-3317,29.0,65.0,36.0,16.0,"3250 THOUSAND OAKS SAN ANTONIO,TX 78247-3317",29.5700102,-98.4349587
293,15910138,NORTH EAST ISD,ROYAL RIDGE ELE,3,INDEPENDENT,5933 ROYAL RIDGE,SAN ANTONIO,78239-1500,31.0,73.0,33.0,9.0,"5933 ROYAL RIDGE SAN ANTONIO,TX 78239-1500",29.5347475,-98.3709576
294,15910139,NORTH EAST ISD,ROAN FOREST ELE,3,INDEPENDENT,22710 ROAN PARK,SAN ANTONIO,78259-2682,5.0,95.0,81.0,46.0,"22710 ROAN PARK SAN ANTONIO,TX 78259-2682",29.65325,-98.43932699999999
295,15910140,NORTH EAST ISD,CANYON RIDGE EL,3,INDEPENDENT,20522 STONE OAK PKWY,SAN ANTONIO,78258-6927,17.0,85.0,61.0,36.0,"20522 STONE OAK PKWY SAN ANTONIO,TX 78258-6927",29.6455312,-98.4673608
296,15910141,NORTH EAST ISD,STEUBING RANCH,3,INDEPENDENT,5100 KNOLL CREEK,SAN ANTONIO,78247-5857,18.0,102.0,69.0,33.0,"5100 KNOLL CREEK SAN ANTONIO,TX 78247-5857",29.59439979999999,-98.3881195
297,15910142,NORTH EAST ISD,BULVERDE CREEK,3,INDEPENDENT,3839 CANYON PKWY,SAN ANTONIO,78259-2367,20.0,143.0,110.0,69.0,"3839 CANYON PKWY SAN ANTONIO,TX 78259-2367",29.6325743,-98.41816539999999
298,15910143,NORTH EAST ISD,WILDERNESS OAK,3,INDEPENDENT,21019 WILDERNESS OAK,SAN ANTONIO,78258-2633,5.0,93.0,67.0,43.0,"21019 WILDERNESS OAK SAN ANTONIO,TX 78258-2633",29.636681,-98.50866239999999
299,15910144,NORTH EAST ISD,TUSCANY HEIGHTS,3,INDEPENDENT,25001 WILDERNESS OAK,SAN ANTONIO,78260,9.0,110.0,83.0,46.0,"25001 WILDERNESS OAK SAN ANTONIO,TX 78260",29.67225119999999,-98.45590050000001
300,15910145,NORTH EAST ISD,CIBOLO GREEN,3,INDEPENDENT,24315 BULVERDE GREEN,SAN ANTONIO,78261,10.0,128.0,85.0,56.0,"24315 BULVERDE GREEN SAN ANTONIO,TX 78261",29.6673922,-98.42213020000001
301,15910146,NORTH EAST ISD,LAS LOMAS ELEM.,3,INDEPENDENT,20303 HARDY OAK,SAN ANTONIO,78258,19.0,63.0,36.0,21.0,"20303 HARDY OAK SAN ANTONIO,TX 78258",29.62998899999999,-98.4824843
302,15910147,NORTH EAST ISD,VINEYARD RANCH,3,INDEPENDENT,16818 HUEBNER RD,SAN ANTONIO,78258,7.0,92.0,72.0,49.0,"16818 HUEBNER RD SAN ANTONIO,TX 78258",29.6106548,-98.521768
303,15911102,EAST CENTRAL IS,HARMONY ELEM.,3,INDEPENDENT,10625 GREEN LK DR,SAN ANTONIO,78223-4261,21.0,75.0,40.0,12.0,"10625 GREEN LK DR SAN ANTONIO,TX 78223-4261",29.3144761,-98.3854064
304,15911103,EAST CENTRAL IS,PECAN VALLEY EL,3,INDEPENDENT,3966 E SOUTHCROSS BLVD,SAN ANTONIO,78222-3589,33.0,71.0,41.0,17.0,"3966 E SOUTHCROSS BLVD SAN ANTONIO,TX 78222-3589",29.372674,-98.416281
305,15911104,EAST CENTRAL IS,SINCLAIR ELEM.,3,INDEPENDENT,6126 SINCLAIR RD,SAN ANTONIO,78222-2439,39.0,77.0,36.0,12.0,"6126 SINCLAIR RD SAN ANTONIO,TX 78222-2439",29.38495249999999,-98.3731162
306,15911106,EAST CENTRAL IS,HIGHLAND FOREST,3,INDEPENDENT,3736 S E MILITARY DR,SAN ANTONIO,78223-4000,48.0,61.0,25.0,8.0,"3736 S E MILITARY DR SAN ANTONIO,TX 78223-4000",29.3535422,-98.4208472
307,15911108,EAST CENTRAL IS,TRADITION ELEM.,3,INDEPENDENT,12885 FM 1346,ST HEDWIG,78152,40.0,68.0,34.0,10.0,"12885 FM 1346 ST HEDWIG,TX 78152",29.4263155,-98.228944
308,15911110,EAST CENTRAL IS,OAK CREST ELEM.,3,INDEPENDENT,7806 NEW SULPHUR SPRINGS RD,SAN ANTONIO,78263,17.0,29.0,17.0,7.0,"7806 NEW SULPHUR SPRINGS RD SAN ANTONIO,TX 78263",29.353422,-98.336299
309,15912101,SOUTHWEST ISD,SOUTHWEST ELEM.,3,INDEPENDENT,11914 DRAGON LN,SAN ANTONIO,78252-2647,20.0,57.0,33.0,20.0,"11914 DRAGON LN SAN ANTONIO,TX 78252-2647",29.3087035,-98.67316849999999
310,15912102,SOUTHWEST ISD,SUN VALLEY ELEM,3,INDEPENDENT,6803 S W LOOP 410,SAN ANTONIO,78227,25.0,67.0,41.0,22.0,"6803 S W LOOP 410 SAN ANTONIO,TX 78227",29.3665008,-98.6364274
311,15912103,SOUTHWEST ISD,INDIAN CREEK EL,3,INDEPENDENT,5830 OLD PEARSALL RD,SAN ANTONIO,78242,23.0,52.0,28.0,12.0,"5830 OLD PEARSALL RD SAN ANTONIO,TX 78242",29.3479052,-98.6104463
312,15912104,SOUTHWEST ISD,BOB HOPE ELEM.,3,INDEPENDENT,3022 REFORMA,SAN ANTONIO,78211,11.0,36.0,19.0,9.0,"3022 REFORMA SAN ANTONIO,TX 78211",29.3221928,-98.55570689999999
313,15912105,SOUTHWEST ISD,SKY HARBOUR ELE,3,INDEPENDENT,5902 FISHERS BEND,SAN ANTONIO,78242,26.0,52.0,33.0,14.0,"5902 FISHERS BEND SAN ANTONIO,TX 78242",29.336134,-98.61295299999999
314,15912106,SOUTHWEST ISD,HIDDEN COVE ELE,3,INDEPENDENT,5102 TRADING POST,SAN ANTONIO,78242,28.0,48.0,23.0,13.0,"5102 TRADING POST SAN ANTONIO,TX 78242",29.3394291,-98.5993261
315,15912107,SOUTHWEST ISD,BIG COUNTRY ELE,3,INDEPENDENT,2250 PUE RD,SAN ANTONIO,78245,26.0,79.0,44.0,22.0,"2250 PUE RD SAN ANTONIO,TX 78245",29.40573,-98.6986051
316,15912108,SOUTHWEST ISD,ELM CREEK ELEM.,3,INDEPENDENT,11535 PEARSALL RD,ATASCOSA,78002,19.0,90.0,52.0,24.0,"11535 PEARSALL RD ATASCOSA,TX 78002",29.27590319999999,-98.72490499999999
317,15912109,SOUTHWEST ISD,KRIEWALD ROAD E,3,INDEPENDENT,10355 KRIEWALD RD,SAN ANTONIO,78245,15.0,64.0,37.0,21.0,"10355 KRIEWALD RD SAN ANTONIO,TX 78245",29.389531,-98.6956189
318,15912110,SOUTHWEST ISD,SPICEWOOD PARK,3,INDEPENDENT,11303 TILSON,SAN ANTONIO,78224,28.0,43.0,19.0,11.0,"11303 TILSON SAN ANTONIO,TX 78224",29.3060294,-98.5619725
319,15912111,SOUTHWEST ISD,MEDIO CREEK ELE,3,INDEPENDENT,6511 OLD PEARSALL RD,SAN ANTONIO,78252,20.0,52.0,33.0,13.0,"6511 OLD PEARSALL RD SAN ANTONIO,TX 78252",29.3369099,-98.6269635
320,15913101,LACKLAND ISD,LACKLAND ELEM.,3,INDEPENDENT,2460 KENLY AVE BLDG 8265,SAN ANTONIO,78236-1244,13.0,82.0,53.0,25.0,"2460 KENLY AVE BLDG 8265 SAN ANTONIO,TX 78236-1244",29.3779812,-98.6136762
321,15914101,FORT SAM HOUSTO,FORT SAM HOUSTO,3,INDEPENDENT,4351 NURSERY RD,SAN ANTONIO,78234-1499,20.0,108.0,65.0,29.0,"4351 NURSERY RD SAN ANTONIO,TX 78234-1499",29.4678591,-98.4308028
322,15915101,NORTHSIDE ISD,CABLE ELEM.,3,INDEPENDENT,1706 PINN RD,SAN ANTONIO,78227-2998,27.0,40.0,12.0,1.0,"1706 PINN RD SAN ANTONIO,TX 78227-2998",29.4143961,-98.62289860000001
323,15915102,NORTHSIDE ISD,GLENN ELEM.,3,INDEPENDENT,2385 HORAL,SAN ANTONIO,78227-2499,30.0,56.0,29.0,9.0,"2385 HORAL SAN ANTONIO,TX 78227-2499",29.4079554,-98.6578103
324,15915103,NORTHSIDE ISD,GLENOAKS ELEM.,3,INDEPENDENT,5103 NEWCOME DR,SAN ANTONIO,78229-4924,28.0,71.0,43.0,20.0,"5103 NEWCOME DR SAN ANTONIO,TX 78229-4924",29.495699,-98.585471
325,15915104,NORTHSIDE ISD,HELOTES ELEM.,3,INDEPENDENT,13878 RIGGS RD,HELOTES,78023-3916,16.0,56.0,37.0,23.0,"13878 RIGGS RD HELOTES,TX 78023-3916",29.5724373,-98.68954339999999
326,15915105,NORTHSIDE ISD,HULL ELEM.,3,INDEPENDENT,7320 REMUDA DR,SAN ANTONIO,78227-2899,17.0,41.0,21.0,10.0,"7320 REMUDA DR SAN ANTONIO,TX 78227-2899",29.414505,-98.6345372
327,15915106,NORTHSIDE ISD,ALLEN ELEM.,3,INDEPENDENT,101 DUMONT DR,SAN ANTONIO,78227-4499,20.0,61.0,28.0,10.0,"101 DUMONT DR SAN ANTONIO,TX 78227-4499",29.3865655,-98.63900849999999
328,15915107,NORTHSIDE ISD,FISHER ELEM.,3,INDEPENDENT,3430 BARREL PASS,SAN ANTONIO,78245,19.0,95.0,59.0,29.0,"3430 BARREL PASS SAN ANTONIO,TX 78245",29.3960814,-98.68725330000001
329,15915108,NORTHSIDE ISD,LEON VALLEY ELE,3,INDEPENDENT,7111 HUEBNER RD,SAN ANTONIO,78240-3199,12.0,62.0,25.0,9.0,"7111 HUEBNER RD SAN ANTONIO,TX 78240-3199",29.5028651,-98.6233864
330,15915109,NORTHSIDE ISD,LOCKE HILL ELEM,3,INDEPENDENT,5050 DE ZAVALA RD,SAN ANTONIO,78249-2099,23.0,79.0,55.0,34.0,"5050 DE ZAVALA RD SAN ANTONIO,TX 78249-2099",29.5650914,-98.5835597
331,15915111,NORTHSIDE ISD,GLASS ELEM.,3,INDEPENDENT,519 CLEARVIEW DR,SAN ANTONIO,78228-2498,38.0,51.0,28.0,10.0,"519 CLEARVIEW DR SAN ANTONIO,TX 78228-2498",29.4799409,-98.57441949999999
332,15915112,NORTHSIDE ISD,POWELL ELEM.,3,INDEPENDENT,6003 THUNDER DR,SAN ANTONIO,78238-3499,22.0,63.0,39.0,21.0,"6003 THUNDER DR SAN ANTONIO,TX 78238-3499",29.475023,-98.60443599999999
333,15915113,NORTHSIDE ISD,VALLEY HI ELEM.,3,INDEPENDENT,8503 RAY ELLISON DR,SAN ANTONIO,78227-4599,12.0,47.0,26.0,13.0,"8503 RAY ELLISON DR SAN ANTONIO,TX 78227-4599",29.374836,-98.64622
334,15915114,NORTHSIDE ISD,WESTWOOD TERRAC,3,INDEPENDENT,2315 HACKAMORE LN,SAN ANTONIO,78227-3499,18.0,68.0,41.0,20.0,"2315 HACKAMORE LN SAN ANTONIO,TX 78227-3499",29.4087371,-98.6402079
335,15915115,NORTHSIDE ISD,COLONIES NORTH,3,INDEPENDENT,9915 NORTHAMPTON DR,SAN ANTONIO,78230-4081,45.0,53.0,28.0,11.0,"9915 NORTHAMPTON DR SAN ANTONIO,TX 78230-4081",29.531479,-98.55329599999999
336,15915116,NORTHSIDE ISD,VILLARREAL ELEM,3,INDEPENDENT,2902 WHITE TAIL DR,SAN ANTONIO,78228-2799,21.0,56.0,26.0,9.0,"2902 WHITE TAIL DR SAN ANTONIO,TX 78228-2799",29.4656615,-98.58858500000001
337,15915117,NORTHSIDE ISD,MEADOW VILLAGE,3,INDEPENDENT,1406 MEADOW WAY DR,SAN ANTONIO,78227-1642,26.0,48.0,18.0,4.0,"1406 MEADOW WAY DR SAN ANTONIO,TX 78227-1642",29.422771,-98.643007
338,15915118,NORTHSIDE ISD,OAK HILLS TERRA,3,INDEPENDENT,5710 CARY GRANT DR,SAN ANTONIO,78240-2499,39.0,78.0,35.0,8.0,"5710 CARY GRANT DR SAN ANTONIO,TX 78240-2499",29.5013989,-98.59936259999999
339,15915119,NORTHSIDE ISD,HOWSMAN ELEM.,3,INDEPENDENT,11431 VANCE JACKSON RD,SAN ANTONIO,78230-1899,26.0,52.0,20.0,10.0,"11431 VANCE JACKSON RD SAN ANTONIO,TX 78230-1899",29.5459015,-98.5641184
340,15915122,NORTHSIDE ISD,PASSMORE ELEM.,3,INDEPENDENT,570 PINN RD,SAN ANTONIO,78227-1299,39.0,52.0,23.0,7.0,"570 PINN RD SAN ANTONIO,TX 78227-1299",29.4303921,-98.6226816
341,15915123,NORTHSIDE ISD,ADAMS HILL ELEM,3,INDEPENDENT,9627 ADAMS HILL DR,SAN ANTONIO,78245-1999,23.0,55.0,29.0,8.0,"9627 ADAMS HILL DR SAN ANTONIO,TX 78245-1999",29.4104939,-98.672897
342,15915124,NORTHSIDE ISD,ESPARZA ELEM.,3,INDEPENDENT,5700 HEMPHILL DR,SAN ANTONIO,78228-4392,15.0,35.0,6.0,1.0,"5700 HEMPHILL DR SAN ANTONIO,TX 78228-4392",29.455196,-98.59918499999999
343,15915125,NORTHSIDE ISD,BOONE ELEM.,3,INDEPENDENT,6614 SPRINGTIME DR,SAN ANTONIO,78249-2799,39.0,38.0,16.0,6.0,"6614 SPRINGTIME DR SAN ANTONIO,TX 78249-2799",29.5512066,-98.61821479999999
344,15915128,NORTHSIDE ISD,CARLOS COON ELE,3,INDEPENDENT,3110 TIMBER VIEW,SAN ANTONIO,78251-1899,31.0,75.0,45.0,22.0,"3110 TIMBER VIEW SAN ANTONIO,TX 78251-1899",29.4650415,-98.6515505
345,15915130,NORTHSIDE ISD,MURNIN ELEM.,3,INDEPENDENT,9019 DUGAS,SAN ANTONIO,78251,21.0,109.0,70.0,31.0,"9019 DUGAS SAN ANTONIO,TX 78251",29.44352619999999,-98.6841769
346,15915131,NORTHSIDE ISD,LINTON ELEM.,3,INDEPENDENT,2103 OAKHILL RD,SAN ANTONIO,78238-4999,25.0,52.0,22.0,11.0,"2103 OAKHILL RD SAN ANTONIO,TX 78238-4999",29.4567978,-98.611226
347,15915132,NORTHSIDE ISD,TIMBERWILDE ELE,3,INDEPENDENT,8838 TIMBERWILDE,SAN ANTONIO,78250-4330,22.0,60.0,32.0,15.0,"8838 TIMBERWILDE SAN ANTONIO,TX 78250-4330",29.4850844,-98.65857489999999
348,15915134,NORTHSIDE ISD,BRAUN STATION E,3,INDEPENDENT,8631 TEZEL RD,SAN ANTONIO,78254,18.0,57.0,40.0,21.0,"8631 TEZEL RD SAN ANTONIO,TX 78254",29.524424,-98.664144
349,15915135,NORTHSIDE ISD,CODY ELEM.,3,INDEPENDENT,10403 DUGAS DR,SAN ANTONIO,78245-1099,29.0,58.0,29.0,8.0,"10403 DUGAS DR SAN ANTONIO,TX 78245-1099",29.429039,-98.6904031
350,15915136,NORTHSIDE ISD,NORTHWEST CROSS,3,INDEPENDENT,10255 DOVER RDG,SAN ANTONIO,78250-2969,11.0,57.0,32.0,13.0,"10255 DOVER RDG SAN ANTONIO,TX 78250-2969",29.5117751,-98.6839139
351,15915138,NORTHSIDE ISD,KNOWLTON ELEM.,3,INDEPENDENT,9500 TIMBER PATH,SAN ANTONIO,78250-3900,18.0,60.0,32.0,10.0,"9500 TIMBER PATH SAN ANTONIO,TX 78250-3900",29.4927919,-98.6866202
352,15915141,NORTHSIDE ISD,FORESTER ELEM.,3,INDEPENDENT,10726 ROUSSEAU,SAN ANTONIO,78245,27.0,121.0,82.0,46.0,"10726 ROUSSEAU SAN ANTONIO,TX 78245",29.4297465,-98.70433299999999
353,15915143,NORTHSIDE ISD,SCOBEE ELEM.,3,INDEPENDENT,11223 CEDAR PARK,SAN ANTONIO,78249-4289,18.0,75.0,41.0,24.0,"11223 CEDAR PARK SAN ANTONIO,TX 78249-4289",29.554533,-98.642417
354,15915144,NORTHSIDE ISD,GALM ELEM.,3,INDEPENDENT,1454 SAXON HILL DR,SAN ANTONIO,78253-5922,31.0,76.0,34.0,17.0,"1454 SAXON HILL DR SAN ANTONIO,TX 78253-5922",29.4433946,-98.72118979999999
355,15915145,NORTHSIDE ISD,ELROD ELEM.,3,INDEPENDENT,8885 HEATH CIR DR,SAN ANTONIO,78250-4657,12.0,57.0,39.0,16.0,"8885 HEATH CIR DR SAN ANTONIO,TX 78250-4657",29.500513,-98.64532299999999
356,15915148,NORTHSIDE ISD,WANKE ELEM.,3,INDEPENDENT,10419 OLD PRUE RD,SAN ANTONIO,78249,34.0,80.0,42.0,17.0,"10419 OLD PRUE RD SAN ANTONIO,TX 78249",29.54187039999999,-98.6527947
357,15915149,NORTHSIDE ISD,THORNTON ELEM.,3,INDEPENDENT,6450 PEMBROKE,SAN ANTONIO,78240-2585,30.0,53.0,29.0,14.0,"6450 PEMBROKE SAN ANTONIO,TX 78240-2585",29.5381321,-98.6134167
358,15915150,NORTHSIDE ISD,BRAUCHLE ELEM.,3,INDEPENDENT,8555 BOWENS CROSSING,SAN ANTONIO,78250-2719,17.0,82.0,45.0,18.0,"8555 BOWENS CROSSING SAN ANTONIO,TX 78250-2719",29.5234893,-98.6847287
359,15915151,NORTHSIDE ISD,FERNANDEZ ELEM.,3,INDEPENDENT,6845 RIDGEBROOK,SAN ANTONIO,78250-3839,16.0,79.0,52.0,24.0,"6845 RIDGEBROOK SAN ANTONIO,TX 78250-3839",29.5012458,-98.6701148
360,15915152,NORTHSIDE ISD,LEON SPRINGS EL,3,INDEPENDENT,23881 IH 10 W,SAN ANTONIO,78257-1157,6.0,80.0,64.0,39.0,"23881 IH 10 W SAN ANTONIO,TX 78257-1157",29.6630307,-98.62886689999999
361,15915156,NORTHSIDE ISD,EVERS ELEM.,3,INDEPENDENT,1715 RICHLAND HILLS DR,SAN ANTONIO,78251-2979,41.0,88.0,46.0,16.0,"1715 RICHLAND HILLS DR SAN ANTONIO,TX 78251-2979",29.4551887,-98.6660749
362,15915157,NORTHSIDE ISD,MAY ELEM.,3,INDEPENDENT,15707 CHASE HILL,SAN ANTONIO,78256-1014,10.0,52.0,27.0,9.0,"15707 CHASE HILL SAN ANTONIO,TX 78256-1014",29.5923688,-98.6266808
363,15915158,NORTHSIDE ISD,MCDERMOTT ELEM.,3,INDEPENDENT,5111 USAA BLVD,SAN ANTONIO,78240-5010,28.0,90.0,52.0,31.0,"5111 USAA BLVD SAN ANTONIO,TX 78240-5010",29.534711,-98.5842069
364,15915160,NORTHSIDE ISD,MYERS ELEM.,3,INDEPENDENT,3031 VILLAGE PKWY,SAN ANTONIO,78251-1830,23.0,67.0,40.0,14.0,"3031 VILLAGE PKWY SAN ANTONIO,TX 78251-1830",29.4720179,-98.65454729999999
365,15915161,NORTHSIDE ISD,STEUBING ELEM.,3,INDEPENDENT,11655 BRAEFIELD,SAN ANTONIO,78249-1699,12.0,77.0,43.0,26.0,"11655 BRAEFIELD SAN ANTONIO,TX 78249-1699",29.55187829999999,-98.65756619999999
366,15915162,NORTHSIDE ISD,MICHAEL ELEM.,3,INDEPENDENT,3155 QUIET PLAIN,SAN ANTONIO,78245-3039,46.0,73.0,27.0,12.0,"3155 QUIET PLAIN SAN ANTONIO,TX 78245-3039",29.399417,-98.682108
367,15915165,NORTHSIDE ISD,CARSON ELEM.,3,INDEPENDENT,8151 OLD TEZEL RD,SAN ANTONIO,78250-3084,22.0,79.0,45.0,20.0,"8151 OLD TEZEL RD SAN ANTONIO,TX 78250-3084",29.5136229,-98.6641191
368,15915166,NORTHSIDE ISD,BURKE ELEM.,3,INDEPENDENT,10111 TERRA OAK,SAN ANTONIO,78250-3380,19.0,50.0,31.0,11.0,"10111 TERRA OAK SAN ANTONIO,TX 78250-3380",29.5080161,-98.6904307
369,15915167,NORTHSIDE ISD,RABA ELEM.,3,INDEPENDENT,9740 MISTY ROCK,SAN ANTONIO,78251-4723,24.0,82.0,60.0,27.0,"9740 MISTY ROCK SAN ANTONIO,TX 78251-4723",29.47962,-98.6463763
370,15915168,NORTHSIDE ISD,LEWIS ELEM.,3,INDEPENDENT,1000 SEASCAPE DR,SAN ANTONIO,78251,23.0,81.0,43.0,20.0,"1000 SEASCAPE DR SAN ANTONIO,TX 78251",29.4421847,-98.6984856
371,15915169,NORTHSIDE ISD,RHODES ELEM.,3,INDEPENDENT,5714 N KNOLL,SAN ANTONIO,78240-2238,34.0,48.0,21.0,10.0,"5714 N KNOLL SAN ANTONIO,TX 78240-2238",29.511704,-98.600546
372,15915170,NORTHSIDE ISD,NICHOLS ELEM.,3,INDEPENDENT,9560 BRAUN RD,SAN ANTONIO,78254-6703,14.0,49.0,35.0,20.0,"9560 BRAUN RD SAN ANTONIO,TX 78254-6703",29.5300989,-98.671662
373,15915171,NORTHSIDE ISD,DRIGGERS ELEM.,3,INDEPENDENT,6901 SHADOW MIST,SAN ANTONIO,78238,19.0,58.0,43.0,24.0,"6901 SHADOW MIST SAN ANTONIO,TX 78238",29.4886714,-98.6256069
374,15915177,NORTHSIDE ISD,CARNAHAN ELEM.,3,INDEPENDENT,6839 BABCOCK RD,SAN ANTONIO,78249,20.0,64.0,38.0,20.0,"6839 BABCOCK RD SAN ANTONIO,TX 78249",29.558086,-98.6230253
375,15915178,NORTHSIDE ISD,AUE ELEM.,3,INDEPENDENT,24750 BAYWATER STAGE,SAN ANTONIO,78255,8.0,87.0,66.0,44.0,"24750 BAYWATER STAGE SAN ANTONIO,TX 78255",29.6732041,-98.6468405
376,15915179,NORTHSIDE ISD,SCARBOROUGH ELE,3,INDEPENDENT,12280 SILVER POINTE,SAN ANTONIO,78238-1699,21.0,120.0,78.0,44.0,"12280 SILVER POINTE SAN ANTONIO,TX 78238-1699",29.5191416,-98.7346214
377,15915180,NORTHSIDE ISD,BEARD ELEM.,3,INDEPENDENT,8725 SONOMA PKWY,HELOTES,78023,2.0,110.0,81.0,51.0,"8725 SONOMA PKWY HELOTES,TX 78023",29.5811153,-98.656688
378,15915181,NORTHSIDE ISD,BLATTMAN ELEM.,3,INDEPENDENT,3300 N LOOP 1604 W,SAN ANTONIO,78231,7.0,69.0,54.0,31.0,"3300 N LOOP 1604 W SAN ANTONIO,TX 78231",29.6013838,-98.5470873
379,15915182,NORTHSIDE ISD,OTT ELEM.,3,INDEPENDENT,100 N GROSENBACHER,SAN ANTONIO,78253,21.0,97.0,48.0,23.0,"100 N GROSENBACHER SAN ANTONIO,TX 78253",29.4321217,-98.73667379999999
380,15915183,NORTHSIDE ISD,WARD ELEM.,3,INDEPENDENT,8400 CAVERN HILL,SAN ANTONIO,78254,19.0,111.0,74.0,30.0,"8400 CAVERN HILL SAN ANTONIO,TX 78254",29.5185237,-98.7087074
381,15915184,NORTHSIDE ISD,HATCHETT ELEM.,3,INDEPENDENT,10700 INGRAM RD,SAN ANTONIO,78245,25.0,77.0,49.0,25.0,"10700 INGRAM RD SAN ANTONIO,TX 78245",29.424975,-98.66511399999999
382,15915185,NORTHSIDE ISD,MEAD ELEM.,3,INDEPENDENT,3803 MID HORIZON DR,SAN ANTONIO,78229,33.0,75.0,40.0,19.0,"3803 MID HORIZON DR SAN ANTONIO,TX 78229",29.515419,-98.55968
383,15915186,NORTHSIDE ISD,KRUEGER ELEM.,3,INDEPENDENT,9900 WILDHORSE PKWY,SAN ANTONIO,78254-1699,12.0,97.0,64.0,37.0,"9900 WILDHORSE PKWY SAN ANTONIO,TX 78254-1699",29.5343321,-98.69799669999999
384,15915187,NORTHSIDE ISD,LANGLEY ELEM.,3,INDEPENDENT,14185 BELLA VISTA PLACE,SAN ANTONIO,78253,9.0,57.0,36.0,16.0,"14185 BELLA VISTA PLACE SAN ANTONIO,TX 78253",29.4266224,-98.7764302
385,15915188,NORTHSIDE ISD,HOFFMANN ELEM.,3,INDEPENDENT,12118 VOLUNTEER PKWY,SAN ANTONIO,78253,32.0,119.0,74.0,26.0,"12118 VOLUNTEER PKWY SAN ANTONIO,TX 78253",29.4768009,-98.73209430000001
386,15915189,NORTHSIDE ISD,MARTIN ELEM.,3,INDEPENDENT,730 CANTERBURY DR,SAN ANTONIO,78228-1699,52.0,53.0,16.0,9.0,"730 CANTERBURY DR SAN ANTONIO,TX 78228-1699",29.4427482,-98.59863260000002
387,15915191,NORTHSIDE ISD,KUENTZ ELEM.,3,INDEPENDENT,12303 LESLIE RD,HELOTES,78023,14.0,96.0,74.0,32.0,"12303 LESLIE RD HELOTES,TX 78023",29.5588773,-98.68249349999999
388,15915192,NORTHSIDE ISD,BEHLAU ELEM.,3,INDEPENDENT,2355 CAMP LIGHT WAY,SAN ANTONIO,78245,43.0,87.0,39.0,13.0,"2355 CAMP LIGHT WAY SAN ANTONIO,TX 78245",29.4078142,-98.7244006
389,15915193,NORTHSIDE ISD,FRANKLIN ELEM.,3,INDEPENDENT,9180 SILVER SPOT,SAN ANTONIO,78254,22.0,97.0,65.0,28.0,"9180 SILVER SPOT SAN ANTONIO,TX 78254",29.5270992,-98.73172980000001
390,15915195,NORTHSIDE ISD,MIRELES ELEM.,3,INDEPENDENT,12260 ROCKWALL MILL,SAN ANTONIO,78253,9.0,128.0,77.0,39.0,"12260 ROCKWALL MILL SAN ANTONIO,TX 78253",29.4918634,-98.73545020000002
391,15915198,NORTHSIDE ISD,HENDERSON ELEM.,3,INDEPENDENT,14605 KALLISON BEND,SAN ANTONIO,78254,6.0,68.0,54.0,28.0,"14605 KALLISON BEND SAN ANTONIO,TX 78254",29.52186,-98.7848417
392,15915223,NORTHSIDE ISD,KALLISON ELEM.,3,INDEPENDENT,8610 RANCH VIEW E,SAN ANTONIO,78235,27.0,112.0,71.0,32.0,"8610 RANCH VIEW E SAN ANTONIO,TX 78235",29.5217343,-98.7649635
393,15915224,NORTHSIDE ISD,MORA ELEM.,3,INDEPENDENT,1520 AMERICAN LOTUS,SAN ANTONIO,78245,3.0,58.0,39.0,23.0,"1520 AMERICAN LOTUS SAN ANTONIO,TX 78245",29.4166845,-98.7278991
394,15915225,NORTHSIDE ISD,LIECK ELEM.,3,INDEPENDENT,12600 REID RANCH,SAN ANTONIO,78245,11.0,75.0,54.0,29.0,"12600 REID RANCH SAN ANTONIO,TX 78245",29.4251593,-98.7446952
395,15915226,NORTHSIDE ISD,FIELDS ELEM.,3,INDEPENDENT,9570 FM 1560 N,SAN ANTONIO,78254,23.0,110.0,71.0,39.0,"9570 FM 1560 N SAN ANTONIO,TX 78254",29.5304302,-98.7157091
396,15915227,NORTHSIDE ISD,BOLDT ELEM.,3,INDEPENDENT,310 HOLLIMON PKWY,SAN ANTONIO,78253,19.0,117.0,79.0,42.0,"310 HOLLIMON PKWY SAN ANTONIO,TX 78253",29.437867,-98.79517589999999
397,15915228,NORTHSIDE ISD,COLE ELEM.,3,INDEPENDENT,13185 TILLMAN RIDGE,SAN ANTONIO,78253,22.0,100.0,67.0,41.0,"13185 TILLMAN RIDGE SAN ANTONIO,TX 78253",29.4575332,-98.75451559999999
398,15915230,NORTHSIDE ISD,MCANDREW ELEM.,3,INDEPENDENT,26615 TOUTANT BEAUREGARD,SAN ANTONIO,78006,3.0,53.0,39.0,20.0,"26615 TOUTANT BEAUREGARD SAN ANTONIO,TX 78006",29.69320339999999,-98.7093069
399,15915234,NORTHSIDE ISD,ELLISON ELEM.,3,INDEPENDENT,7132 OAK DR,SAN ANTONIO,78256,11.0,72.0,53.0,29.0,"7132 OAK DR SAN ANTONIO,TX 78256",29.63869699999999,-98.623021
400,15915236,NORTHSIDE ISD,LOS REYES ELEM.,3,INDEPENDENT,10785 TRIANA PKWY,HELOTES,78023,6.0,90.0,71.0,44.0,"10785 TRIANA PKWY HELOTES,TX 78023",29.60064089999999,-98.7034731
401,15916101,JUDSON ISD,CONVERSE ELEM.,3,INDEPENDENT,6720 FM 1516,CONVERSE,78109,23.0,50.0,23.0,11.0,"6720 FM 1516 CONVERSE,TX 78109",29.492062,-98.308322
402,15916102,JUDSON ISD,HOPKINS ELEM.,3,INDEPENDENT,2440 ACKERMAN RD,SAN ANTONIO,78219-2114,37.0,63.0,28.0,9.0,"2440 ACKERMAN RD SAN ANTONIO,TX 78219-2114",29.4522538,-98.37945219999999
403,15916103,JUDSON ISD,ED FRANZ ELEM.,3,INDEPENDENT,12301 WELCOME DR,SAN ANTONIO,78233-2599,18.0,36.0,23.0,9.0,"12301 WELCOME DR SAN ANTONIO,TX 78233-2599",29.5525026,-98.33481189999999
404,15916104,JUDSON ISD,CORONADO VILLAG,3,INDEPENDENT,213 AMISTAD BLVD,UNIVERSAL CITY,78148-3199,10.0,51.0,32.0,11.0,"213 AMISTAD BLVD UNIVERSAL CITY,TX 78148-3199",29.5505559,-98.31828120000002
405,15916105,JUDSON ISD,PARK VILLAGE EL,3,INDEPENDENT,5855 E MIDCROWN DR,SAN ANTONIO,78218-4199,22.0,51.0,25.0,6.0,"5855 E MIDCROWN DR SAN ANTONIO,TX 78218-4199",29.4908032,-98.3703834
406,15916106,JUDSON ISD,CRESTVIEW ELEM.,3,INDEPENDENT,7710 NARROW PASS,SAN ANTONIO,78233-2999,2.0,85.0,66.0,42.0,"7710 NARROW PASS SAN ANTONIO,TX 78233-2999",29.5410111,-98.335033
407,15916107,JUDSON ISD,WOODLAKE ELEM.,3,INDEPENDENT,5501 LK BEND E,SAN ANTONIO,78244-1699,20.0,49.0,27.0,11.0,"5501 LK BEND E SAN ANTONIO,TX 78244-1699",29.4735674,-98.3499023
408,15916109,JUDSON ISD,OLYMPIA ELEM.,3,INDEPENDENT,8439 ATHENIAN,UNIVERSAL CITY,78148-2601,8.0,58.0,45.0,18.0,"8439 ATHENIAN UNIVERSAL CITY,TX 78148-2601",29.568789,-98.318096
409,15916110,JUDSON ISD,SPRING MEADOWS,3,INDEPENDENT,7135 ELM TRL,SAN ANTONIO,78244-1869,17.0,62.0,36.0,17.0,"7135 ELM TRL SAN ANTONIO,TX 78244-1869",29.5018984,-98.3359679
410,15916111,JUDSON ISD,MILLER POINT EL,3,INDEPENDENT,7027 MISTY RDG,CONVERSE,78109-2756,21.0,67.0,47.0,21.0,"7027 MISTY RDG CONVERSE,TX 78109-2756",29.5296823,-98.34751179999999
411,15916112,JUDSON ISD,CANDLEWOOD ELEM,3,INDEPENDENT,3635 CANDLEGLEN,SAN ANTONIO,78244-0249,31.0,53.0,27.0,17.0,"3635 CANDLEGLEN SAN ANTONIO,TX 78244-0249",29.4578787,-98.3687497
412,15916113,JUDSON ISD,ELOLF ELEM.,3,INDEPENDENT,6335 BEECH TRL,CONVERSE,78109-3352,20.0,51.0,26.0,12.0,"6335 BEECH TRL CONVERSE,TX 78109-3352",29.4862089,-98.3174846
413,15916114,JUDSON ISD,WILLIAM PASCHAL,3,INDEPENDENT,6351 LAKEVIEW DR,SAN ANTONIO,78244,22.0,63.0,30.0,14.0,"6351 LAKEVIEW DR SAN ANTONIO,TX 78244",29.4725539,-98.36244599999999
414,15916115,JUDSON ISD,MARY LOU HARTMA,3,INDEPENDENT,7203 WOODLAKE PKWY,SAN ANTONIO,78218,23.0,63.0,35.0,15.0,"7203 WOODLAKE PKWY SAN ANTONIO,TX 78218",29.4967875,-98.3645646
415,15916116,JUDSON ISD,RICARDO SALINAS,3,INDEPENDENT,10560 OLD CIMMARON TRL,UNIVERSAL CITY,78148,29.0,89.0,43.0,14.0,"10560 OLD CIMMARON TRL UNIVERSAL CITY,TX 78148",29.53578229999999,-98.3125819
416,15916117,JUDSON ISD,JAMES L. MASTER,3,INDEPENDENT,2650 WOODLAKE PKWY,CONVERSE,78109,11.0,49.0,14.0,3.0,"2650 WOODLAKE PKWY CONVERSE,TX 78109",29.4566821,-98.3478126
417,15916118,JUDSON ISD,ROLLING MEADOWS,3,INDEPENDENT,17222 FM 2252,SAN ANTONIO,78233,15.0,90.0,60.0,35.0,"17222 FM 2252 SAN ANTONIO,TX 78233",29.5953173,-98.3427076
418,15916119,JUDSON ISD,COPPERFIELD ELE,3,INDEPENDENT,7595 E LOOP 1604 N,CONVERSE,78109-2915,38.0,69.0,40.0,19.0,"7595 E LOOP 1604 N CONVERSE,TX 78109-2915",29.5016485,-98.2906882
419,15916123,JUDSON ISD,ESCONDIDO ELEM.,3,INDEPENDENT,5000 TEXAS PALM,CONVERSE,78109,15.0,54.0,29.0,9.0,"5000 TEXAS PALM CONVERSE,TX 78109",29.4707833,-98.3222351
420,15916124,JUDSON ISD,WORTHAM OAKS EL,3,INDEPENDENT,5710 CARRIAGE CAPE,SAN ANTONIO,78261-1111,0.0,41.0,32.0,18.0,"5710 CARRIAGE CAPE SAN ANTONIO,TX 78261-1111",29.646279,-98.3743356
421,15917102,SOUTHSIDE ISD,W.M. PEARCE PRI,3,INDEPENDENT,19190 HWY 281 S #3,SAN ANTONIO,78221-9648,25.0,43.0,22.0,7.0,"19190 HWY 281 S #3 SAN ANTONIO,TX 78221-9648",,
422,15917104,SOUTHSIDE ISD,HERITAGE ELEM.,3,INDEPENDENT,3223 S LOOP 1604 E,SAN ANTONIO,78264,12.0,50.0,29.0,13.0,"3223 S LOOP 1604 E SAN ANTONIO,TX 78264",29.2220348,-98.442157
423,15917105,SOUTHSIDE ISD,FREEDOM ELEM.,3,INDEPENDENT,3845 S LOOP 1604 E,SAN ANTONIO,78264,39.0,47.0,24.0,8.0,"3845 S LOOP 1604 E SAN ANTONIO,TX 78264",29.2204013,-98.4200426
424,15917106,SOUTHSIDE ISD,JULIAN C. GALLA,3,INDEPENDENT,1300 DEL LAGORD,SAN ANTONIO,78221-9648,48.0,50.0,22.0,5.0,"1300 DEL LAGORD SAN ANTONIO,TX 78221-9648",29.3031615,-98.4764635
425,16901101,JOHNSON CITY IS,LYNDON B. JOHNS,3,INDEPENDENT,401 E PECAN ST,JOHNSON CITY,78636-0498,5.0,39.0,25.0,14.0,"401 E PECAN ST JOHNSON CITY,TX 78636-0498",30.2780038,-98.4084403
426,16902101,BLANCO ISD,BLANCO ELEM.,3,INDEPENDENT,814 ELEVENTH ST,BLANCO,78606,9.0,55.0,37.0,21.0,"814 ELEVENTH ST BLANCO,TX 78606",30.1055717,-98.4223944
427,17901001,BORDEN COUNTY I,BORDEN COUNTY S,3,INDEPENDENT,240 W KINCAID ST,GAIL,79738-0095,1.0,18.0,7.0,4.0,"240 W KINCAID ST GAIL,TX 79738-0095",32.77581,-101.4514387
428,18901101,CLIFTON ISD,CLIFTON ELEM.,3,INDEPENDENT,1000 KEY AVE,CLIFTON,76634-2107,23.0,50.0,26.0,13.0,"1000 KEY AVE CLIFTON,TX 76634-2107",31.7886722,-97.5881232
429,18902101,MERIDIAN ISD,MERIDIAN ELEM.,3,INDEPENDENT,550 CR 2515,MERIDIAN,76665-0349,5.0,25.0,15.0,5.0,"550 CR 2515 MERIDIAN,TX 76665-0349",31.92320849999999,-97.65668939999999
430,18903001,MORGAN ISD,MORGAN SCHOOL,3,INDEPENDENT,1306 CHARLES ST,MORGAN,76671-0300,3.0,5.0,3.0,3.0,"1306 CHARLES ST MORGAN,TX 76671-0300",32.0195063,-97.60683050000002
431,18904101,VALLEY MILLS IS,VALLEY MILLS EL,3,INDEPENDENT,102 W AVE C,VALLEY MILLS,76689-0518,3.0,40.0,26.0,12.0,"102 W AVE C VALLEY MILLS,TX 76689-0518",31.6597481,-97.4758392
432,18905003,WALNUT SPRINGS,WALNUT SPRINGS,3,INDEPENDENT,184 AVE A,WALNUT SPRINGS,76690,1.0,11.0,2.0,0.0,"184 AVE A WALNUT SPRINGS,TX 76690",32.0524413,-97.7520644
433,18906001,IREDELL ISD,IREDELL SCHOOL,3,INDEPENDENT,501 MCLAIN ST,IREDELL,76649-0039,1.0,8.0,4.0,1.0,"501 MCLAIN ST IREDELL,TX 76649-0039",31.9833742,-97.8748865
434,18907001,KOPPERL ISD,KOPPERL SCHOOL,3,INDEPENDENT,175 CR 1240,KOPPERL,76652-0067,5.0,10.0,7.0,0.0,"175 CR 1240 KOPPERL,TX 76652-0067",32.0733669,-97.5008677
435,18908001,CRANFILLS GAP I,CRANFILLS GAP S,3,INDEPENDENT,505 S 2ND ST,CRANFILLS GAP,76637,2.0,7.0,2.0,0.0,"505 S 2ND ST CRANFILLS GAP,TX 76637",31.7704069,-97.8253043
436,19901102,DEKALB ISD,DEKALB ELEM.,3,INDEPENDENT,101 W FANNIN ST,DEKALB,75559-1614,12.0,41.0,12.0,4.0,"101 W FANNIN ST DEKALB,TX 75559-1614",33.5079642,-94.62366689999999
437,19902102,HOOKS ISD,HOOKS ELEM.,3,INDEPENDENT,401 PRECINCT RD,HOOKS,75561-0189,11.0,52.0,34.0,12.0,"401 PRECINCT RD HOOKS,TX 75561-0189",33.470813,-94.2592758
438,19903001,MAUD ISD,MAUD SCHOOL,3,INDEPENDENT,389 HOUSTON DR,MAUD,75567,1.0,30.0,22.0,17.0,"389 HOUSTON DR MAUD,TX 75567",33.3260562,-94.34804899999999
439,19905101,NEW BOSTON ISD,CRESTVIEW ELEM.,3,INDEPENDENT,604 N MCCOY BLVD,NEW BOSTON,75570-2399,30.0,66.0,32.0,17.0,"604 N MCCOY BLVD NEW BOSTON,TX 75570-2399",33.4691543,-94.40682029999999
440,19906101,REDWATER ISD,REDWATER ELEM.,3,INDEPENDENT,206 RED RIVER RD N,REDWATER,75573,13.0,61.0,36.0,17.0,"206 RED RIVER RD N REDWATER,TX 75573",33.3686954,-94.2491347
441,19907105,TEXARKANA ISD,HIGHLAND PARK E,3,INDEPENDENT,401 W 25TH ST,TEXARKANA,75503-4200,14.0,44.0,16.0,5.0,"401 W 25TH ST TEXARKANA,TX 75503-4200",33.4403043,-94.0473517
442,19907108,TEXARKANA ISD,WESTLAWN ELEM.,3,INDEPENDENT,410 WESTLAWN DR,TEXARKANA,75501-4099,29.0,69.0,32.0,8.0,"410 WESTLAWN DR TEXARKANA,TX 75501-4099",33.437118,-94.0860017
443,19907109,TEXARKANA ISD,NASH ELEM.,3,INDEPENDENT,100 E BURTON ST,NASH,75569-2502,17.0,85.0,36.0,20.0,"100 E BURTON ST NASH,TX 75569-2502",33.4470763,-94.12839939999999
444,19907111,TEXARKANA ISD,SPRING LAKE PAR,3,INDEPENDENT,4324 GHIO FISH BLVD,TEXARKANA,75503-3004,16.0,45.0,15.0,4.0,"4324 GHIO FISH BLVD TEXARKANA,TX 75503-3004",33.4601689,-94.05222069999999
445,19907113,TEXARKANA ISD,WAKE VILLAGE EL,3,INDEPENDENT,400 WILDCAT DR,WAKE VILLAGE,75501-5999,16.0,72.0,47.0,19.0,"400 WILDCAT DR WAKE VILLAGE,TX 75501-5999",33.4218713,-94.1101343
446,19907116,TEXARKANA ISD,MARTHA AND JOSH,3,INDEPENDENT,4826 UNIVERSITY PARK,TEXARKANA,75503,0.0,66.0,59.0,33.0,"4826 UNIVERSITY PARK TEXARKANA,TX 75503",33.4636968,-94.1112041
447,19907117,TEXARKANA ISD,WAGGONER CREEK,3,INDEPENDENT,6335 GIBSON LN,TEXARKANA,75503,6.0,37.0,15.0,7.0,"6335 GIBSON LN TEXARKANA,TX 75503",33.4589984,-94.12564619999999
448,19908103,LIBERTY-EYLAU I,LIBERTY-EYLAU E,3,INDEPENDENT,5492 US-59,TEXARKANA,75501-7599,40.0,102.0,56.0,27.0,"5492 US-59 TEXARKANA,TX 75501-7599",33.38030990000001,-94.1176775
449,19909101,SIMMS ISD,JAMES BOWIE ELE,3,INDEPENDENT,7497 US HWY 67 W,SIMMS,75574-0009,1.0,31.0,26.0,15.0,"7497 US HWY 67 W SIMMS,TX 75574-0009",33.3331425,-94.5418141
450,19910101,MALTA ISD,MALTA ELEM.,3,INDEPENDENT,6178 W US HWY 82,NEW BOSTON,75570-9500,1.0,21.0,10.0,7.0,"6178 W US HWY 82 NEW BOSTON,TX 75570-9500",33.4876315,-94.5203389
451,19911101,RED LICK ISD,RED LICK ELEM.,3,INDEPENDENT,3511 N F M 2148,TEXARKANA,75503-4821,4.0,60.0,51.0,28.0,"3511 N F M 2148 TEXARKANA,TX 75503-4821",33.4675615,-94.1746733
452,19912200,PLEASANT GROVE,PLEASANT GROVE,3,INDEPENDENT,8480 N KINGS HWY,TEXARKANA,75503,14.0,115.0,88.0,60.0,"8480 N KINGS HWY TEXARKANA,TX 75503",33.48251090000001,-94.1211674
453,19913101,HUBBARD ISD,HUBBARD ISD,3,INDEPENDENT,3347 US HWY 259 S,DEKALB,75559,8.0,3.0,1.0,0.0,"3347 US HWY 259 S DEKALB,TX 75559",33.4689494,-94.6370705
454,19914101,LEARY ISD,LEARY ELEM.,3,INDEPENDENT,9500 W NEW BOSTON RD,TEXARKANA,75501-0519,5.0,8.0,3.0,0.0,"9500 W NEW BOSTON RD TEXARKANA,TX 75501-0519",33.4603977,-94.2086968
455,20901101,ALVIN ISD,ALVIN ELEM.,3,INDEPENDENT,1910 ROSHARON RD,ALVIN,77511-2702,46.0,105.0,48.0,27.0,"1910 ROSHARON RD ALVIN,TX 77511-2702",29.40143299999999,-95.2626487
456,20901103,ALVIN ISD,MARK TWAIN ELEM,3,INDEPENDENT,345 KENDALL CREST DR,ALVIN,77511,25.0,96.0,45.0,22.0,"345 KENDALL CREST DR ALVIN,TX 77511",29.4653837,-95.2505709
457,20901104,ALVIN ISD,BILL HASSE ELEM,3,INDEPENDENT,1200 E HOUSE ST,ALVIN,77511,33.0,89.0,50.0,34.0,"1200 E HOUSE ST ALVIN,TX 77511",29.4172127,-95.2318499
458,20901105,ALVIN ISD,E.C. MASON ELEM,3,INDEPENDENT,7400 LEWIS LN,MANVEL,77578-4772,31.0,78.0,35.0,18.0,"7400 LEWIS LN MANVEL,TX 77578-4772",29.4723337,-95.35064609999999
459,20901107,ALVIN ISD,WALT DISNEY ELE,3,INDEPENDENT,5000 MUSTANG RD,ALVIN,77511-2702,27.0,122.0,68.0,35.0,"5000 MUSTANG RD ALVIN,TX 77511-2702",29.37517949999999,-95.2309906
460,20901108,ALVIN ISD,MELBA PASSMORE,3,INDEPENDENT,600 E KOST RD,ALVIN,77511-2644,29.0,74.0,50.0,27.0,"600 E KOST RD ALVIN,TX 77511-2644",29.4192057,-95.2628531
461,20901109,ALVIN ISD,HOOD-CASE ELEM.,3,INDEPENDENT,1450 HTS RD,ALVIN,77511-2702,13.0,83.0,58.0,33.0,"1450 HTS RD ALVIN,TX 77511-2702",29.43687449999999,-95.25562699999999
462,20901110,ALVIN ISD,DON JETER ELEM.,3,INDEPENDENT,2455 COUNTY RD 58,ROSHARON,77583,18.0,89.0,50.0,25.0,"2455 COUNTY RD 58 ROSHARON,TX 77583",29.5128538,-95.4149821
463,20901111,ALVIN ISD,MARY BURKS MARE,3,INDEPENDENT,1947 KIRBY DR,PEARLAND,77584,7.0,83.0,59.0,38.0,"1947 KIRBY DR PEARLAND,TX 77584",29.5763213,-95.39731259999999
464,20901112,ALVIN ISD,LAURA INGALLS W,3,INDEPENDENT,2225 KINGSLEY,PEARLAND,77584,9.0,120.0,94.0,71.0,"2225 KINGSLEY PEARLAND,TX 77584",29.5714752,-95.41693889999999
465,20901113,ALVIN ISD,SAVANNAH LAKES,3,INDEPENDENT,5151 SAVANNAH PKWY,ROSHARON,77583,26.0,123.0,69.0,39.0,"5151 SAVANNAH PKWY ROSHARON,TX 77583",29.5119109,-95.43383469999999
466,20901114,ALVIN ISD,GLENN YORK ELEM,3,INDEPENDENT,2720 KINGSLEY DR,PEARLAND,77584,10.0,139.0,118.0,83.0,"2720 KINGSLEY DR PEARLAND,TX 77584",29.5604827,-95.41852899999999
467,20901115,ALVIN ISD,RED DUKE ELEM.,3,INDEPENDENT,11330 MAGNOLIA PKWY,MANVEL,77578,16.0,74.0,42.0,28.0,"11330 MAGNOLIA PKWY MANVEL,TX 77578",29.5453525,-95.28965760000001
468,20901116,ALVIN ISD,MERIDIANA ELEM.,3,INDEPENDENT,9815 MERIDIANA PKWY,IOWA COLONY,77583,37.0,108.0,54.0,21.0,"9815 MERIDIANA PKWY IOWA COLONY,TX 77583",29.4400596,-95.41461749999999
469,20901117,ALVIN ISD,SHIRLEY DILL BR,3,INDEPENDENT,2910 HALF MOON BAY DR,PEARLAND,77584,25.0,130.0,97.0,61.0,"2910 HALF MOON BAY DR PEARLAND,TX 77584",29.5567194,-95.4084588
470,20901118,ALVIN ISD,POMONA ELEM.,3,INDEPENDENT,4480 KIRBY DR,MANVEL,77578,10.0,78.0,56.0,37.0,"4480 KIRBY DR MANVEL,TX 77578",29.5291773,-95.4015069
471,20902102,ANGLETON ISD,NORTHSIDE ELEM.,3,INDEPENDENT,1001 RIDGECREST DR,ANGLETON,77515-3599,15.0,62.0,35.0,19.0,"1001 RIDGECREST DR ANGLETON,TX 77515-3599",29.179281,-95.4213858
472,20902103,ANGLETON ISD,SOUTHSIDE ELEM.,3,INDEPENDENT,1200 PARK LN,ANGLETON,77515-5399,11.0,33.0,16.0,8.0,"1200 PARK LN ANGLETON,TX 77515-5399",29.151696,-95.420918
473,20902104,ANGLETON ISD,WESTSIDE ELEM.,3,INDEPENDENT,1001 W MULBERRY,ANGLETON,77515-4899,37.0,133.0,59.0,25.0,"1001 W MULBERRY ANGLETON,TX 77515-4899",29.1624308,-95.447806
474,20902108,ANGLETON ISD,RANCHO ISABELLA,3,INDEPENDENT,100 CORRAL LOOP,ANGLETON,77515-3706,12.0,47.0,18.0,5.0,"100 CORRAL LOOP ANGLETON,TX 77515-3706",29.199343,-95.424706
475,20902109,ANGLETON ISD,FRONTIER ELEM.,3,INDEPENDENT,5200 AIRLINE DR,ANGLETON,77515-3799,11.0,68.0,39.0,15.0,"5200 AIRLINE DR ANGLETON,TX 77515-3799",29.1993232,-95.4293113
476,20902110,ANGLETON ISD,CENTRAL ELEM.,3,INDEPENDENT,429 E LOCUST ST,ANGLETON,77515,9.0,42.0,20.0,8.0,"429 E LOCUST ST ANGLETON,TX 77515",29.1688431,-95.4275651
477,20904101,DANBURY ISD,DANBURY ELEM.,3,INDEPENDENT,2222 AVE F,DANBURY,77534,14.0,40.0,22.0,12.0,"2222 AVE F DANBURY,TX 77534",29.224917,-95.3436133
478,20905101,BRAZOSPORT ISD,S.F. AUSTIN ELE,3,INDEPENDENT,7351 STEPHEN F AUSTIN RD,JONES CREEK,77541,4.0,42.0,19.0,9.0,"7351 STEPHEN F AUSTIN RD JONES CREEK,TX 77541",28.9658506,-95.4645717
479,20905102,BRAZOSPORT ISD,A.P. BEUTEL ELE,3,INDEPENDENT,300 LIGUSTRUM ST,LAKE JACKSON,77566-5899,9.0,117.0,81.0,39.0,"300 LIGUSTRUM ST LAKE JACKSON,TX 77566-5899",29.0340369,-95.4300411
480,20905107,BRAZOSPORT ISD,ELISABET NEY EL,3,INDEPENDENT,308 WINDING WAY ST,LAKE JACKSON,77566-5311,21.0,81.0,50.0,25.0,"308 WINDING WAY ST LAKE JACKSON,TX 77566-5311",29.0368982,-95.44092870000001
481,20905108,BRAZOSPORT ISD,T.W. OGG ELEM.,3,INDEPENDENT,208 N LAZY LN,CLUTE,77531-4004,11.0,88.0,53.0,23.0,"208 N LAZY LN CLUTE,TX 77531-4004",29.0232018,-95.41313989999999
482,20905109,BRAZOSPORT ISD,O.M. ROBERTS EL,3,INDEPENDENT,110 S CEDAR ST,LAKE JACKSON,77566-6133,9.0,87.0,60.0,27.0,"110 S CEDAR ST LAKE JACKSON,TX 77566-6133",29.0202385,-95.4305322
483,20905110,BRAZOSPORT ISD,VELASCO ELEM.,3,INDEPENDENT,401 N GULF BLVD,FREEPORT,77541-1926,43.0,138.0,101.0,47.0,"401 N GULF BLVD FREEPORT,TX 77541-1926",28.9650454,-95.36491029999999
484,20905111,BRAZOSPORT ISD,BESS BRANNEN EL,3,INDEPENDENT,802 THAT WAY ST,LAKE JACKSON,77566-4299,6.0,103.0,70.0,33.0,"802 THAT WAY ST LAKE JACKSON,TX 77566-4299",29.062098,-95.44762899999999
485,20905113,BRAZOSPORT ISD,GLADYS POLK ELE,3,INDEPENDENT,600 AUDUBON WOODS DR,RICHWOOD,77531,12.0,72.0,51.0,31.0,"600 AUDUBON WOODS DR RICHWOOD,TX 77531",29.0638268,-95.4127727
486,20905114,BRAZOSPORT ISD,GRIFFITH ELEM.,3,INDEPENDENT,401 COLLEGE DR,CLUTE,77531-9999,10.0,68.0,49.0,28.0,"401 COLLEGE DR CLUTE,TX 77531-9999",29.0204432,-95.41318609999999
487,20906104,SWEENY ISD,SWEENY ELEM.,3,INDEPENDENT,905 SYCAMORE,SWEENY,77480-1399,37.0,94.0,42.0,19.0,"905 SYCAMORE SWEENY,TX 77480-1399",29.0423966,-95.7071867
488,20907102,COLUMBIA-BRAZOR,WEST COLUMBIA E,3,INDEPENDENT,711 S GRAY,WEST COLUMBIA,77486-3857,19.0,98.0,61.0,32.0,"711 S GRAY WEST COLUMBIA,TX 77486-3857",29.1359688,-95.6439566
489,20907106,COLUMBIA-BRAZOR,WILD PEACH ELEM,3,INDEPENDENT,3311 COUNTY RD 353,BRAZORIA,77422,13.0,28.0,11.0,3.0,"3311 COUNTY RD 353 BRAZORIA,TX 77422",29.07472809999999,-95.6166349
490,20907107,COLUMBIA-BRAZOR,BARROW ELEM.,3,INDEPENDENT,112 GAINES,BRAZORIA,77422,24.0,53.0,26.0,11.0,"112 GAINES BRAZORIA,TX 77422",29.0509621,-95.56812719999999
491,20908101,PEARLAND ISD,E.A. LAWHON ELE,3,INDEPENDENT,5810 BROOKSIDE RD,PEARLAND,77581,19.0,129.0,94.0,59.0,"5810 BROOKSIDE RD PEARLAND,TX 77581",29.5873749,-95.3204313
492,20908102,PEARLAND ISD,C.J. HARRIS ELE,3,INDEPENDENT,2314 SCHLEIDER DR,PEARLAND,77581-4209,11.0,120.0,80.0,43.0,"2314 SCHLEIDER DR PEARLAND,TX 77581-4209",29.5657524,-95.2719537
493,20908103,PEARLAND ISD,SHADYCREST ELEM,3,INDEPENDENT,2405 SHADY BEND DR,PEARLAND,77581-5412,4.0,137.0,114.0,66.0,"2405 SHADY BEND DR PEARLAND,TX 77581-5412",29.5481121,-95.2554996
494,20908104,PEARLAND ISD,H.C. CARLESTON,3,INDEPENDENT,3010 HARKEY RD,PEARLAND,77584,27.0,130.0,80.0,38.0,"3010 HARKEY RD PEARLAND,TX 77584",29.5531436,-95.3152959
495,20908106,PEARLAND ISD,CHALLENGER ELEM,3,INDEPENDENT,9434 HUGHES RANCH RD,PEARLAND,77581,18.0,117.0,93.0,59.0,"9434 HUGHES RANCH RD PEARLAND,TX 77581",29.5695597,-95.36655789999999
496,20908107,PEARLAND ISD,RUSTIC OAK ELEM,3,INDEPENDENT,1302 RUSTIC LN,PEARLAND,77581-6512,14.0,98.0,66.0,34.0,"1302 RUSTIC LN PEARLAND,TX 77581-6512",29.53448199999999,-95.233039
497,20908109,PEARLAND ISD,SILVERLAKE ELEM,3,INDEPENDENT,2550 CO RD NINETY,PEARLAND,77584-4845,16.0,122.0,97.0,75.0,"2550 CO RD NINETY PEARLAND,TX 77584-4845",29.5501087,-95.3675464
498,20908110,PEARLAND ISD,SILVERCREST ELE,3,INDEPENDENT,3003 SOUTHWYCK PKWY,PEARLAND,77584-4899,5.0,144.0,132.0,97.0,"3003 SOUTHWYCK PKWY PEARLAND,TX 77584-4899",29.5500523,-95.3731811
499,20908112,PEARLAND ISD,MASSEY RANCH EL,3,INDEPENDENT,3900 MANVEL RD,PEARLAND,77584,22.0,120.0,89.0,58.0,"3900 MANVEL RD PEARLAND,TX 77584",29.534858,-95.33239789999999
500,20908113,PEARLAND ISD,BARBARA COCKREL,3,INDEPENDENT,3500 MCHARD RD,PEARLAND,77581,9.0,122.0,96.0,63.0,"3500 MCHARD RD PEARLAND,TX 77581",29.5822122,-95.27795909999999
501,20908114,PEARLAND ISD,MAGNOLIA ELEM.,3,INDEPENDENT,5350 MAGNOLIA,PEARLAND,77584,21.0,160.0,108.0,59.0,"5350 MAGNOLIA PEARLAND,TX 77584",29.5425903,-95.30232409999999
502,20910101,DAMON ISD,DAMON ELEM.,3,INDEPENDENT,1211 MULCAHY ST/COUNTY RD 264,DAMON,77430-0429,3.0,8.0,3.0,2.0,"1211 MULCAHY ST/COUNTY RD 264 DAMON,TX 77430-0429",29.2893825,-95.74039049999999
503,21803001,BRAZOS SCHOOL F,BRAZOS SCHOOL F,3,CHARTER,410 BETHEL LN,BRYAN,77802,2.0,13.0,6.0,4.0,"410 BETHEL LN BRYAN,TX 77802",30.6577784,-96.3670276
504,21803102,BRAZOS SCHOOL F,BRAZOS SCHOOL F,3,CHARTER,1055 W TIDWELL RD,HOUSTON,77091,10.0,7.0,2.0,1.0,"1055 W TIDWELL RD HOUSTON,TX 77091",29.8463021,-95.42762650000002
505,21805041,ARROW ACADEMY,ARROW ACAD. - S,3,CHARTER,1700 GROESBECK ST,BRYAN,77803,2.0,11.0,3.0,0.0,"1700 GROESBECK ST BRYAN,TX 77803",30.6570066,-96.3800397
506,21805101,ARROW ACADEMY,ARROW ACAD. - L,3,CHARTER,11600 W AIRPORT BLVD,MEADOWS PLACE,77477,4.0,31.0,17.0,5.0,"11600 W AIRPORT BLVD MEADOWS PLACE,TX 77477",29.648498,-95.58024569999999
507,21805102,ARROW ACADEMY,ARROW ACAD. - H,3,CHARTER,17770 IMPERIAL VALLEY DR,HOUSTON,77060,13.0,21.0,10.0,4.0,"17770 IMPERIAL VALLEY DR HOUSTON,TX 77060",29.9550595,-95.3979797
508,21805105,ARROW ACADEMY,ARROW ACAD. - C,3,CHARTER,2113 CYPRESS LANDING DR,HOUSTON,77090,1.0,20.0,11.0,8.0,"2113 CYPRESS LANDING DR HOUSTON,TX 77090",30.0026445,-95.4583692
509,21901101,COLLEGE STATION,SOUTH KNOLL ELE,3,INDEPENDENT,1220 BOSWELL ST,COLLEGE STATION,77840-4398,26.0,80.0,40.0,22.0,"1220 BOSWELL ST COLLEGE STATION,TX 77840-4398",30.600614,-96.31770589999999
510,21901102,COLLEGE STATION,COLLEGE HILLS E,3,INDEPENDENT,1101 WILLIAMS ST,COLLEGE STATION,77840-2599,33.0,83.0,53.0,27.0,"1101 WILLIAMS ST COLLEGE STATION,TX 77840-2599",30.6256319,-96.3187028
511,21901104,COLLEGE STATION,SOUTHWOOD VALLE,3,INDEPENDENT,2700 BROTHERS BLVD,COLLEGE STATION,77845-5330,19.0,74.0,45.0,26.0,"2700 BROTHERS BLVD COLLEGE STATION,TX 77845-5330",30.5896693,-96.30150929999999
512,21901105,COLLEGE STATION,ROCK PRAIRIE EL,3,INDEPENDENT,3400 WELSH AVE,COLLEGE STATION,77845-7900,2.0,88.0,73.0,52.0,"3400 WELSH AVE COLLEGE STATION,TX 77845-7900",30.5763253,-96.30524659999999
513,21901107,COLLEGE STATION,PEBBLE CREEK EL,3,INDEPENDENT,200 PARKVIEW DR,COLLEGE STATION,77845-8956,5.0,73.0,62.0,35.0,"200 PARKVIEW DR COLLEGE STATION,TX 77845-8956",30.5584452,-96.2497511
514,21901108,COLLEGE STATION,FOREST RIDGE,3,INDEPENDENT,1950 GREENS PRAIRIE RD W,COLLEGE STATION,77845,13.0,112.0,85.0,52.0,"1950 GREENS PRAIRIE RD W COLLEGE STATION,TX 77845",30.550911,-96.268935
515,21901109,COLLEGE STATION,CREEK VIEW ELEM,3,INDEPENDENT,1001 EAGLE AVE,COLLEGE STATION,77845,24.0,88.0,52.0,23.0,"1001 EAGLE AVE COLLEGE STATION,TX 77845",30.5690976,-96.2898836
516,21901110,COLLEGE STATION,GREENS PRAIRIE,3,INDEPENDENT,4315 GREENS PRAIRIE TRAIL,COLLEGE STATION,77845,11.0,141.0,98.0,56.0,"4315 GREENS PRAIRIE TRAIL COLLEGE STATION,TX 77845",30.52042,-96.2920097
517,21901111,COLLEGE STATION,SPRING CREEK EL,3,INDEPENDENT,2450 BREWSTER DR,COLLEGE STATION,77845,16.0,108.0,75.0,41.0,"2450 BREWSTER DR COLLEGE STATION,TX 77845",30.5499209,-96.2884488
518,21902101,BRYAN ISD,KEMP-CARVER ELE,3,INDEPENDENT,750 BRUIN TRACE,BRYAN,77803,15.0,63.0,35.0,18.0,"750 BRUIN TRACE BRYAN,TX 77803",30.6860755,-96.3893535
519,21902103,BRYAN ISD,BONHAM ELEM.,3,INDEPENDENT,3100 WILKES DR,BRYAN,77803-0898,10.0,85.0,52.0,26.0,"3100 WILKES DR BRYAN,TX 77803-0898",30.7059533,-96.37664799999999
520,21902105,BRYAN ISD,CROCKETT ELEM.,3,INDEPENDENT,401 ELM,BRYAN,77801-3118,14.0,43.0,23.0,9.0,"401 ELM BRYAN,TX 77801-3118",30.64026,-96.35361499999999
521,21902106,BRYAN ISD,FANNIN ELEM.,3,INDEPENDENT,1200 BAKER AVE,BRYAN,77803-4799,16.0,67.0,32.0,11.0,"1200 BAKER AVE BRYAN,TX 77803-4799",30.6683473,-96.3677342
522,21902107,BRYAN ISD,HENDERSON ELEM.,3,INDEPENDENT,801 MATOUS DR,BRYAN,77802-1826,20.0,83.0,33.0,17.0,"801 MATOUS DR BRYAN,TX 77802-1826",30.6546961,-96.35790999999999
523,21902108,BRYAN ISD,JOHNSON ELEM.,3,INDEPENDENT,3800 OAK HILL DR,BRYAN,77802-4625,19.0,63.0,36.0,18.0,"3800 OAK HILL DR BRYAN,TX 77802-4625",30.6485319,-96.3263458
524,21902110,BRYAN ISD,SUL ROSS ELEM.,3,INDEPENDENT,3300 PKWY TER,BRYAN,77802-3760,28.0,58.0,33.0,19.0,"3300 PKWY TER BRYAN,TX 77802-3760",30.646564,-96.34759799999999
525,21902112,BRYAN ISD,SAM HOUSTON ELE,3,INDEPENDENT,4501 CANTERBURY,BRYAN,77802-5908,5.0,57.0,35.0,15.0,"4501 CANTERBURY BRYAN,TX 77802-5908",30.670381,-96.297388
526,21902113,BRYAN ISD,NAVARRO ELEM.,3,INDEPENDENT,4619 NORTHWOOD DR,BRYAN,77803-0499,7.0,65.0,34.0,16.0,"4619 NORTHWOOD DR BRYAN,TX 77803-0499",30.718291,-96.392888
527,21902114,BRYAN ISD,MARY BRANCH ELE,3,INDEPENDENT,2040 W VILLA MARIA RD,BRYAN,77807-4819,16.0,70.0,35.0,10.0,"2040 W VILLA MARIA RD BRYAN,TX 77807-4819",30.625311,-96.38973399999999
528,21902115,BRYAN ISD,ANSON JONES ELE,3,INDEPENDENT,1400 PECAN ST,BRYAN,77803,21.0,80.0,40.0,9.0,"1400 PECAN ST BRYAN,TX 77803",30.6643845,-96.3849638
529,21902117,BRYAN ISD,ALTON BOWEN ELE,3,INDEPENDENT,3870 COPPERFIELD DR,BRYAN,77802-5804,11.0,64.0,44.0,21.0,"3870 COPPERFIELD DR BRYAN,TX 77802-5804",30.655135,-96.30413899999999
530,21902118,BRYAN ISD,NEAL ELEM.,3,INDEPENDENT,801 W M L K ST,BRYAN,77803-2697,14.0,73.0,36.0,10.0,"801 W M L K ST BRYAN,TX 77803-2697",30.6799978,-96.3634733
531,21902119,BRYAN ISD,MITCHELL ELEM.,3,INDEPENDENT,2500 AUSTIN'S COLONY PKWY,BRYAN,77808,18.0,58.0,35.0,13.0,"2500 AUSTIN'S COLONY PKWY BRYAN,TX 77808",30.68185699999999,-96.334959
532,22004001,TERLINGUA CSD,BIG BEND H.S.,3,COMMON,550 ROADRUNNER CIR,TERLINGUA,79852-0256,3.0,4.0,1.0,0.0,"550 ROADRUNNER CIR TERLINGUA,TX 79852-0256",29.321586,-103.6160191
533,22901101,ALPINE ISD,ALPINE ELEM.,3,INDEPENDENT,200 E AVE A,ALPINE,79830-3618,13.0,65.0,34.0,14.0,"200 E AVE A ALPINE,TX 79830-3618",30.362261,-103.6620622
536,23902001,SILVERTON ISD,SILVERTON SCHOO,3,INDEPENDENT,700 LORETTA ST,SILVERTON,79257-0608,3.0,9.0,5.0,1.0,"700 LORETTA ST SILVERTON,TX 79257-0608",34.4707539,-101.3093513
537,24901101,BROOKS COUNTY I,FALFURRIAS ELEM,3,INDEPENDENT,100 E ALLEN ST,FALFURRIAS,78355-0589,33.0,62.0,34.0,10.0,"100 E ALLEN ST FALFURRIAS,TX 78355-0589",27.2249791,-98.1444788
538,25901101,BANGS ISD,J.B. STEPHENS E,3,INDEPENDENT,2001 N SIXTH ST,BANGS,76823,15.0,48.0,27.0,12.0,"2001 N SIXTH ST BANGS,TX 76823",31.729605,-99.12651
539,25902106,BROWNWOOD ISD,NORTHWEST ELEM.,3,INDEPENDENT,311 BLUFFVIEW DR,BROWNWOOD,76801-1907,21.0,71.0,46.0,29.0,"311 BLUFFVIEW DR BROWNWOOD,TX 76801-1907",31.7180352,-99.00365529999999
540,25902107,BROWNWOOD ISD,WOODLAND HEIGHT,3,INDEPENDENT,3900 4TH ST,BROWNWOOD,76801-6799,29.0,73.0,42.0,19.0,"3900 4TH ST BROWNWOOD,TX 76801-6799",31.6784316,-98.9615396
541,25902109,BROWNWOOD ISD,EAST ELEM.,3,INDEPENDENT,2700 VICENT ST,BROWNWOOD,76801-5845,22.0,47.0,20.0,9.0,"2700 VICENT ST BROWNWOOD,TX 76801-5845",31.6959881,-98.965034
542,25904001,BLANKET ISD,BLANKET SCHOOL,3,INDEPENDENT,901 AVE H,BLANKET,76432-9756,5.0,7.0,3.0,3.0,"901 AVE H BLANKET,TX 76432-9756",31.8213121,-98.7925695
543,25905101,MAY ISD,MAY ELEM.,3,INDEPENDENT,3400 CR 411 E,MAY,76857,5.0,10.0,4.0,0.0,"3400 CR 411 E MAY,TX 76857",31.97915,-98.924981
544,25906001,ZEPHYR ISD,ZEPHYR SCHOOL,3,INDEPENDENT,11625 C R 281,ZEPHYR,76890-0708,5.0,9.0,5.0,3.0,"11625 C R 281 ZEPHYR,TX 76890-0708",31.67629,-98.79445199999999
545,25908001,BROOKESMITH ISD,BROOKESMITH SCH,3,INDEPENDENT,13400 FM 586 S,BROOKESMITH,76827-0706,2.0,8.0,2.0,1.0,"13400 FM 586 S BROOKESMITH,TX 76827-0706",31.5431704,-99.1216685
546,25909101,EARLY ISD,EARLY ELEM.,3,INDEPENDENT,201 SUDDERTH,EARLY,76802-3315,16.0,75.0,34.0,15.0,"201 SUDDERTH EARLY,TX 76802-3315",31.74315279999999,-98.9280702
547,26901101,CALDWELL ISD,CALDWELL ELEM.,3,INDEPENDENT,675 COUNTY RD 300,CALDWELL,77836-1549,26.0,93.0,50.0,29.0,"675 COUNTY RD 300 CALDWELL,TX 77836-1549",30.5460945,-96.6768189
548,26902101,SOMERVILLE ISD,SOMERVILLE ELEM,3,INDEPENDENT,700 8TH ST,SOMERVILLE,77879-0997,11.0,22.0,7.0,2.0,"700 8TH ST SOMERVILLE,TX 77879-0997",30.3407838,-96.5360663
549,26903101,SNOOK ISD,SNOOK ELEM.,3,INDEPENDENT,10110 FM 2155,SOMERVILLE,77879,8.0,29.0,19.0,9.0,"10110 FM 2155 SOMERVILLE,TX 77879",30.4899015,-96.4657787
550,27903102,BURNET CISD,BERTRAM ELEM.,3,INDEPENDENT,315 MAIN,BERTRAM,78605-4409,18.0,30.0,19.0,7.0,"315 MAIN BERTRAM,TX 78605-4409",30.7462903,-98.0517117
551,27903104,BURNET CISD,R.J. RICHEY ELE,3,INDEPENDENT,500 E GRAVES,BURNET,78611,44.0,105.0,53.0,30.0,"500 E GRAVES BURNET,TX 78611",30.7698477,-98.225404
552,27904101,MARBLE FALLS IS,MARBLE FALLS EL,3,INDEPENDENT,901 AVE U,MARBLE FALLS,78654-4802,27.0,70.0,48.0,24.0,"901 AVE U MARBLE FALLS,TX 78654-4802",30.583927,-98.286266
553,27904102,MARBLE FALLS IS,COLT ELEM.,3,INDEPENDENT,2200 MANZANO MILE,MARBLE FALLS,78654-4803,30.0,76.0,34.0,15.0,"2200 MANZANO MILE MARBLE FALLS,TX 78654-4803",30.59371609999999,-98.2455239
554,27904103,MARBLE FALLS IS,HIGHLAND LAKES,3,INDEPENDENT,8200 W FM 1431,GRANITE SHOALS,78654-4803,38.0,46.0,17.0,7.0,"8200 W FM 1431 GRANITE SHOALS,TX 78654-4803",30.6087937,-98.3716038
555,27904104,MARBLE FALLS IS,SPICEWOOD ELEM.,3,INDEPENDENT,1005 SPUR 191,SPICEWOOD,78669,4.0,26.0,17.0,10.0,"1005 SPUR 191 SPICEWOOD,TX 78669",30.4699236,-98.15464879999999
556,28902101,LOCKHART ISD,CLEAR FORK ELEM,3,INDEPENDENT,1102 CLEAR FORK ST,LOCKHART,78644-2930,25.0,50.0,26.0,12.0,"1102 CLEAR FORK ST LOCKHART,TX 78644-2930",29.8754458,-97.6825788
557,28902103,LOCKHART ISD,NAVARRO ELEM.,3,INDEPENDENT,715 MEDINA ST,LOCKHART,78644-3221,24.0,50.0,32.0,12.0,"715 MEDINA ST LOCKHART,TX 78644-3221",29.8733789,-97.68135
558,28902104,LOCKHART ISD,PLUM CREEK ELEM,3,INDEPENDENT,710 FLORES ST,LOCKHART,78644-1848,14.0,63.0,36.0,14.0,"710 FLORES ST LOCKHART,TX 78644-1848",29.892217,-97.66614899999999
559,28902105,LOCKHART ISD,BLUEBONNET ELEM,3,INDEPENDENT,211 S MOCKINGBIRD LN,LOCKHART,78644-0120,33.0,55.0,25.0,11.0,"211 S MOCKINGBIRD LN LOCKHART,TX 78644-0120",29.8790283,-97.6954281
560,28902106,LOCKHART ISD,ALMA BREWER STR,3,INDEPENDENT,9000 FM 1854,DALE,78616,12.0,36.0,25.0,12.0,"9000 FM 1854 DALE,TX 78616",30.0017654,-97.6194867
561,28903101,LULING ISD,LEONARD SHANKLI,3,INDEPENDENT,122 E HOUSTON,LULING,78648-2916,28.0,72.0,36.0,17.0,"122 E HOUSTON LULING,TX 78648-2916",29.676869,-97.655945
562,28906001,PRAIRIE LEA ISD,PRAIRIE LEA SCH,3,INDEPENDENT,6910 HWY 80,PRAIRIE LEA,78661,6.0,4.0,2.0,1.0,"6910 HWY 80 PRAIRIE LEA,TX 78661",28.9537747,-97.8239641
563,29901101,CALHOUN COUNTY,HARRISON-JEFFER,3,INDEPENDENT,605 N COMMERCE ST,PORT LAVACA,77979-3013,1.0,100.0,78.0,40.0,"605 N COMMERCE ST PORT LAVACA,TX 77979-3013",28.6210768,-96.6288981
564,29901102,CALHOUN COUNTY,JACKSON-ROOSEVE,3,INDEPENDENT,1512 JACKSON ST,PORT LAVACA,77979-4651,16.0,121.0,77.0,34.0,"1512 JACKSON ST PORT LAVACA,TX 77979-4651",28.6003226,-96.62829579999999
565,29901105,CALHOUN COUNTY,PORT O'CONNOR E,3,INDEPENDENT,508 W MONROE ST,PORT O'CONNOR,77982-0687,1.0,16.0,13.0,7.0,"508 W MONROE ST PORT O'CONNOR,TX 77982-0687",28.4494976,-96.4109406
566,29901107,CALHOUN COUNTY,SEADRIFT SCHOOL,3,INDEPENDENT,1801 W BROADWAY,SEADRIFT,77983-0979,4.0,28.0,19.0,9.0,"1801 W BROADWAY SEADRIFT,TX 77983-0979",28.416842,-96.7281422
567,30901101,CROSS PLAINS IS,CROSS PLAINS EL,3,INDEPENDENT,700 N MAIN,CROSS PLAINS,76443-2112,7.0,20.0,10.0,2.0,"700 N MAIN CROSS PLAINS,TX 76443-2112",32.1314953,-99.16490259999999
